{
  "last_updated": 1561629241,
  "ttl": 14,
  "data": {
    "stations": [
      {
        "station_id": 1,
        "name": "01 - C/ GRAN VIA CORTS CATALANES, 760",
        "physical_configuration": "ELECTRICBIKESTATION",
        "lat": 41.397952,
        "lon": 2.180042,
        "altitude": 21,
        "address": "01 - C/ GRAN VIA CORTS CATALANES, 760",
        "post_code": "08908",
        "capacity": 29
      },
      {
        "station_id": 2,
        "name": "02 - C/ ROGER DE FLOR, 126",
        "physical_configuration": "ELECTRICBIKESTATION",
        "lat": 41.39553,
        "lon": 2.17706,
        "altitude": 21,
        "address": "02 - C/ ROGER DE FLOR, 126",
        "post_code": "08908",
        "capacity": 27
      },
      {
        "station_id": 3,
        "name": "03 - C/ NÀPOLS, 82",
        "physical_configuration": "ELECTRICBIKESTATION",
        "lat": 41.394055,
        "lon": 2.181299,
        "altitude": 22,
        "address": "03 - C/ NÀPOLS, 82",
        "post_code": "08908",
        "capacity": 27
      },
      {
        "station_id": 4,
        "name": "04 - C/ RIBES, 13",
        "physical_configuration": "ELECTRICBIKESTATION",
        "lat": 41.39348,
        "lon": 2.181555,
        "altitude": 21,
        "address": "04 - C/ RIBES, 13",
        "post_code": "08908",
        "capacity": 21
      },
      {
        "station_id": 6,
        "name": "06 - PG. LLUIS COMPANYS, 18  (ARC TRIOMF)",
        "physical_configuration": "ELECTRICBIKESTATION",
        "lat": 41.391349,
        "lon": 2.18061,
        "altitude": 16,
        "address": "06 - PG. LLUIS COMPANYS, 18  (ARC TRIOMF)",
        "post_code": "08908",
        "capacity": 38
      },
      {
        "station_id": 7,
        "name": "07 - PG. PUJADES,  1 (JUTJATS)",
        "physical_configuration": "ELECTRICBIKESTATION",
        "lat": 41.388856,
        "lon": 2.183251,
        "altitude": 16,
        "address": "07 - PG. PUJADES,  1 (JUTJATS)",
        "post_code": "08908",
        "capacity": 26
      },
      {
        "station_id": 8,
        "name": "08 - PG. PUJADES, 2",
        "physical_configuration": "ELECTRICBIKESTATION",
        "lat": 41.389088,
        "lon": 2.183568,
        "altitude": 11,
        "address": "08 - PG. PUJADES, 2",
        "post_code": "08908",
        "capacity": 27
      },
      {
        "station_id": 9,
        "name": "09 - AV. MARQUÉS DE L'ARGENTERA,13",
        "physical_configuration": "ELECTRICBIKESTATION",
        "lat": 41.384532,
        "lon": 2.184921,
        "altitude": 11,
        "address": "09 - AV. MARQUÉS DE L'ARGENTERA,13",
        "post_code": "08908",
        "capacity": 27
      },
      {
        "station_id": 11,
        "name": "11 - PG. MARITIM, 11 (DAVANT PL. BRUGADA)",
        "physical_configuration": "ELECTRICBIKESTATION",
        "lat": 41.381689,
        "lon": 2.193914,
        "altitude": 1,
        "address": "11 - PG. MARITIM, 11 (DAVANT PL. BRUGADA)",
        "post_code": "08908",
        "capacity": 21
      },
      {
        "station_id": 12,
        "name": "12 - PG. MARITIM, 23 (HOSPITAL DEL MAR)",
        "physical_configuration": "ELECTRICBIKESTATION",
        "lat": 41.384538,
        "lon": 2.195679,
        "altitude": 0.1,
        "address": "12 - PG. MARITIM, 23 (HOSPITAL DEL MAR)",
        "post_code": "08908",
        "capacity": 26
      },
      {
        "station_id": 13,
        "name": "13 - CARRER DE LA MARINA, 25-33",
        "physical_configuration": "ELECTRICBIKESTATION",
        "lat": 41.387985,
        "lon": 2.19578,
        "altitude": 8,
        "address": "13 - CARRER DE LA MARINA, 25-33",
        "post_code": "08908",
        "capacity": 54
      },
      {
        "station_id": 14,
        "name": "14 - AV. MARQUÉS DE  L'ARGENTERA, 15",
        "physical_configuration": "ELECTRICBIKESTATION",
        "lat": 41.384675,
        "lon": 2.185039,
        "altitude": 11,
        "address": "14 - AV. MARQUÉS DE  L'ARGENTERA, 15",
        "post_code": "08908",
        "capacity": 26
      },
      {
        "station_id": 15,
        "name": "15 - C/ GIRONA, 68",
        "physical_configuration": "ELECTRICBIKESTATION",
        "lat": 41.394812,
        "lon": 2.171189,
        "altitude": 40,
        "address": "15 - C/ GIRONA, 68",
        "post_code": "08908",
        "capacity": 21
      },
      {
        "station_id": 17,
        "name": "17 - AV. MERIDIANA, 47 (ANNEXA A LA 16)",
        "physical_configuration": "ELECTRICBIKESTATION",
        "lat": 41.398237,
        "lon": 2.186711,
        "altitude": 18,
        "address": "17 - AV. MERIDIANA, 47 (ANNEXA A LA 16)",
        "post_code": "08908",
        "capacity": 42
      },
      {
        "station_id": 18,
        "name": "18 - C/ ROSSELLÓ, 453",
        "physical_configuration": "ELECTRICBIKESTATION",
        "lat": 41.406086,
        "lon": 2.174167,
        "altitude": 49,
        "address": "18 - C/ ROSSELLÓ, 453",
        "post_code": "08908",
        "capacity": 27
      },
      {
        "station_id": 19,
        "name": "19 - C/ ROSSELLÓ, 354",
        "physical_configuration": "ELECTRICBIKESTATION",
        "lat": 41.403282,
        "lon": 2.170726,
        "altitude": 49,
        "address": "19 - C/ ROSSELLÓ, 354",
        "post_code": "08908",
        "capacity": 30
      },
      {
        "station_id": 20,
        "name": "20 - C/ CARTAGENA, 308",
        "physical_configuration": "ELECTRICBIKESTATION",
        "lat": 41.410166,
        "lon": 2.175759,
        "altitude": 59,
        "address": "20 - C/ CARTAGENA, 308",
        "post_code": "08908",
        "capacity": 18
      },
      {
        "station_id": 21,
        "name": "21 - C/ SANT ANTONI MARIA CLARET, 214",
        "physical_configuration": "ELECTRICBIKESTATION",
        "lat": 41.410897,
        "lon": 2.17402,
        "altitude": 59,
        "address": "21 - C/ SANT ANTONI MARIA CLARET, 214",
        "post_code": "08908",
        "capacity": 21
      },
      {
        "station_id": 22,
        "name": "22 - C/ SARDENYA, 292",
        "physical_configuration": "ELECTRICBIKESTATION",
        "lat": 41.401684,
        "lon": 2.17568,
        "altitude": 28,
        "address": "22 - C/ SARDENYA, 292",
        "post_code": "08908",
        "capacity": 19
      },
      {
        "station_id": 23,
        "name": "23 - C/ BRUC, 45",
        "physical_configuration": "ELECTRICBIKESTATION",
        "lat": 41.392526,
        "lon": 2.171812,
        "altitude": 42,
        "address": "23 - C/ BRUC, 45",
        "post_code": "08908",
        "capacity": 27
      },
      {
        "station_id": 24,
        "name": "24 - C/ MARINA, 199",
        "physical_configuration": "ELECTRICBIKESTATION",
        "lat": 41.400659,
        "lon": 2.179111,
        "altitude": 30,
        "address": "24 - C/ MARINA, 199",
        "post_code": "08908",
        "capacity": 30
      },
      {
        "station_id": 25,
        "name": "25 - C/ BRUC, 102",
        "physical_configuration": "ELECTRICBIKESTATION",
        "lat": 41.395179,
        "lon": 2.168294,
        "altitude": 42,
        "address": "25 - C/ BRUC, 102",
        "post_code": "08908",
        "capacity": 21
      },
      {
        "station_id": 26,
        "name": "26 - C/ DOS DE MAIG, 230-232",
        "physical_configuration": "ELECTRICBIKESTATION",
        "lat": 41.407035,
        "lon": 2.181981,
        "altitude": 28,
        "address": "26 - C/ DOS DE MAIG, 230-232",
        "post_code": "08908",
        "capacity": 18
      },
      {
        "station_id": 27,
        "name": "27 - C/ PROVENÇA, 322",
        "physical_configuration": "ELECTRICBIKESTATION",
        "lat": 41.396897,
        "lon": 2.164373,
        "altitude": 49,
        "address": "27 - C/ PROVENÇA, 322",
        "post_code": "08908",
        "capacity": 21
      },
      {
        "station_id": 28,
        "name": "28 - C/ SARDENYA, 362",
        "physical_configuration": "ELECTRICBIKESTATION",
        "lat": 41.405422,
        "lon": 2.17064,
        "altitude": 45,
        "address": "28 - C/ SARDENYA, 362",
        "post_code": "08908",
        "capacity": 15
      },
      {
        "station_id": 29,
        "name": "29 - C/ PROVENÇA, 388-390",
        "physical_configuration": "ELECTRICBIKESTATION",
        "lat": 41.401132,
        "lon": 2.170028,
        "altitude": 50,
        "address": "29 - C/ PROVENÇA, 388-390",
        "post_code": "08908",
        "capacity": 23
      },
      {
        "station_id": 30,
        "name": "30 - AV. DIAGONAL, 231 AMB PADILLA",
        "physical_configuration": "ELECTRICBIKESTATION",
        "lat": 41.402046,
        "lon": 2.182286,
        "altitude": 28,
        "address": "30 - AV. DIAGONAL, 231 AMB PADILLA",
        "post_code": "08908",
        "capacity": 21
      },
      {
        "station_id": 31,
        "name": "31 - PL. DEL MAR",
        "physical_configuration": "ELECTRICBIKESTATION",
        "lat": 41.37481,
        "lon": 2.18895,
        "altitude": 1,
        "address": "31 - PL. DEL MAR",
        "post_code": "08908",
        "capacity": 18
      },
      {
        "station_id": 32,
        "name": "32 - LA BARCELONETA (CN BARCELONETA)",
        "physical_configuration": "ELECTRICBIKESTATION",
        "lat": 41.373698,
        "lon": 2.188927,
        "altitude": 1,
        "address": "32 - LA BARCELONETA (CN BARCELONETA)",
        "post_code": "08908",
        "capacity": 27
      },
      {
        "station_id": 33,
        "name": "33 - C/ PONTEVEDRA / JUDICI",
        "physical_configuration": "ELECTRICBIKESTATION",
        "lat": 41.376862,
        "lon": 2.190773,
        "altitude": 1,
        "address": "33 - C/ PONTEVEDRA / JUDICI",
        "post_code": "08908",
        "capacity": 21
      },
      {
        "station_id": 34,
        "name": "34 - C/ SANT PERE MÉS ALT, 4",
        "physical_configuration": "ELECTRICBIKESTATION",
        "lat": 41.387074,
        "lon": 2.175247,
        "altitude": 16,
        "address": "34 - C/ SANT PERE MÉS ALT, 4",
        "post_code": "08908",
        "capacity": 21
      },
      {
        "station_id": 35,
        "name": "35 - C/ SANT RAMON DE PENYAFORT, 1",
        "physical_configuration": "ELECTRICBIKESTATION",
        "lat": 41.413592,
        "lon": 2.221153,
        "altitude": 1,
        "address": "35 - C/ SANT RAMON DE PENYAFORT, 1",
        "post_code": "08908",
        "capacity": 27
      },
      {
        "station_id": 36,
        "name": "36 - AV. DE LA CATEDRAL, 6",
        "physical_configuration": "ELECTRICBIKESTATION",
        "lat": 41.385151,
        "lon": 2.176804,
        "altitude": 16,
        "address": "36 - AV. DE LA CATEDRAL, 6",
        "post_code": "08908",
        "capacity": 21
      },
      {
        "station_id": 37,
        "name": "37 - PL. ANTONIO LÓPEZ (CORREUS, VIA LAIETANA",
        "physical_configuration": "ELECTRICBIKESTATION",
        "lat": 41.381226,
        "lon": 2.181888,
        "altitude": 5,
        "address": "37 - PL. ANTONIO LÓPEZ (CORREUS, VIA LAIETANA)",
        "post_code": "08908",
        "capacity": 24
      },
      {
        "station_id": 39,
        "name": "39 - PL. PAU VILA ",
        "physical_configuration": "ELECTRICBIKESTATION",
        "lat": 41.381046,
        "lon": 2.186576,
        "altitude": 1,
        "address": "39 - PL. PAU VILA ",
        "post_code": "08908",
        "capacity": 43
      },
      {
        "station_id": 40,
        "name": "40 - C/ DOCTOR AIGUADER, 2",
        "physical_configuration": "ELECTRICBIKESTATION",
        "lat": 41.382335,
        "lon": 2.187093,
        "altitude": 1,
        "address": "40 - C/ DOCTOR AIGUADER, 2",
        "post_code": "08908",
        "capacity": 18
      },
      {
        "station_id": 41,
        "name": "41 - PL. POETA BOSCÀ/ATLÀNTIDA",
        "physical_configuration": "ELECTRICBIKESTATION",
        "lat": 41.379326,
        "lon": 2.189906,
        "altitude": 1,
        "address": "41 - PL. POETA BOSCÀ/ATLÀNTIDA",
        "post_code": "08908",
        "capacity": 21
      },
      {
        "station_id": 42,
        "name": "42 - C/ CIUTAT DE GRANADA, 168 / AV. DIAGONAL",
        "physical_configuration": "ELECTRICBIKESTATION",
        "lat": 41.404511,
        "lon": 2.189881,
        "altitude": 18,
        "address": "42 - C/ CIUTAT DE GRANADA, 168 / AV. DIAGONAL",
        "post_code": "08908",
        "capacity": 24
      },
      {
        "station_id": 44,
        "name": "44 - AV. MERIDIANA, 66 ( COSTAT METRO GLORIES",
        "physical_configuration": "ELECTRICBIKESTATION",
        "lat": 41.402285,
        "lon": 2.187111,
        "altitude": 18,
        "address": "44 - AV. MERIDIANA, 66 ( COSTAT METRO GLORIES)",
        "post_code": "08908",
        "capacity": 21
      },
      {
        "station_id": 45,
        "name": "45 - C/ SARDENYA, 66",
        "physical_configuration": "ELECTRICBIKESTATION",
        "lat": 41.391429,
        "lon": 2.189312,
        "altitude": 18,
        "address": "45 - C/ SARDENYA, 66",
        "post_code": "08908",
        "capacity": 27
      },
      {
        "station_id": 46,
        "name": "46 - C/ RAMON TRIAS FARGAS, 19",
        "physical_configuration": "ELECTRICBIKESTATION",
        "lat": 41.388359,
        "lon": 2.193004,
        "altitude": 1,
        "address": "46 - C/ RAMON TRIAS FARGAS, 19",
        "post_code": "08908",
        "capacity": 52
      },
      {
        "station_id": 47,
        "name": "47 - C/ RAMON TRIAS FARGAS, 21",
        "physical_configuration": "ELECTRICBIKESTATION",
        "lat": 41.389831,
        "lon": 2.191147,
        "altitude": 1,
        "address": "47 - C/ RAMON TRIAS FARGAS, 21",
        "post_code": "08908",
        "capacity": 47
      },
      {
        "station_id": 48,
        "name": "48 - AV. MERIDIANA, 40",
        "physical_configuration": "ELECTRICBIKESTATION",
        "lat": 41.396085,
        "lon": 2.187073,
        "altitude": 18,
        "address": "48 - AV. MERIDIANA, 40",
        "post_code": "08908",
        "capacity": 21
      },
      {
        "station_id": 49,
        "name": "49 - C/ ROSA SENSAT, 20",
        "physical_configuration": "ELECTRICBIKESTATION",
        "lat": 41.39106,
        "lon": 2.196457,
        "altitude": 1,
        "address": "49 - C/ ROSA SENSAT, 20",
        "post_code": "08908",
        "capacity": 21
      },
      {
        "station_id": 50,
        "name": "50 - AV. PARAL.LEL, 54",
        "physical_configuration": "ELECTRICBIKESTATION",
        "lat": 41.375,
        "lon": 2.17035,
        "altitude": 1,
        "address": "50 - AV. PARAL.LEL, 54",
        "post_code": "08908",
        "capacity": 18
      },
      {
        "station_id": 51,
        "name": "51 - PL. VICENÇ MARTORELL",
        "physical_configuration": "ELECTRICBIKESTATION",
        "lat": 41.384054,
        "lon": 2.169019,
        "altitude": 32,
        "address": "51 - PL. VICENÇ MARTORELL",
        "post_code": "08908",
        "capacity": 20
      },
      {
        "station_id": 53,
        "name": "53 - PL. CARLES PI I SUNYER",
        "physical_configuration": "ELECTRICBIKESTATION",
        "lat": 41.385227,
        "lon": 2.173878,
        "altitude": 32,
        "address": "53 - PL. CARLES PI I SUNYER",
        "post_code": "08908",
        "capacity": 21
      },
      {
        "station_id": 54,
        "name": "54 - C/ SANT OLEGUER, 2",
        "physical_configuration": "ELECTRICBIKESTATION",
        "lat": 41.377635,
        "lon": 2.170586,
        "altitude": 24,
        "address": "54 - C/ SANT OLEGUER, 2",
        "post_code": "08908",
        "capacity": 19
      },
      {
        "station_id": 55,
        "name": "55 - LA RAMBLA, 80",
        "physical_configuration": "ELECTRICBIKESTATION",
        "lat": 41.381154,
        "lon": 2.173497,
        "altitude": 24,
        "address": "55 - LA RAMBLA, 80",
        "post_code": "08908",
        "capacity": 19
      },
      {
        "station_id": 56,
        "name": "56 - PORTAL DE SANTA MADRONA, 2-4",
        "physical_configuration": "ELECTRICBIKESTATION",
        "lat": 41.377011,
        "lon": 2.175834,
        "altitude": 5,
        "address": "56 - PORTAL DE SANTA MADRONA, 2-4",
        "post_code": "08908",
        "capacity": 27
      },
      {
        "station_id": 57,
        "name": "57 - RAMBLA, 2",
        "physical_configuration": "ELECTRICBIKESTATION",
        "lat": 41.376758,
        "lon": 2.177093,
        "altitude": 5,
        "address": "57 - RAMBLA, 2",
        "post_code": "08908",
        "capacity": 25
      },
      {
        "station_id": 58,
        "name": "58 - PLAÇA DELS ÀNGELS ( MACBA )",
        "physical_configuration": "ELECTRICBIKESTATION",
        "lat": 41.382822,
        "lon": 2.167154,
        "altitude": 24,
        "address": "58 - PLAÇA DELS ÀNGELS ( MACBA )",
        "post_code": "08908",
        "capacity": 20
      },
      {
        "station_id": 59,
        "name": "59 - PLAÇA DELS ÀNGELS ( MACBA )",
        "physical_configuration": "ELECTRICBIKESTATION",
        "lat": 41.382781,
        "lon": 2.167203,
        "altitude": 24,
        "address": "59 - PLAÇA DELS ÀNGELS ( MACBA )",
        "post_code": "08908",
        "capacity": 21
      },
      {
        "station_id": 60,
        "name": "60 - RAMBLA CATALUNYA, 47",
        "physical_configuration": "ELECTRICBIKESTATION",
        "lat": 41.390349,
        "lon": 2.16424,
        "altitude": 41,
        "address": "60 - RAMBLA CATALUNYA, 47",
        "post_code": "08908",
        "capacity": 27
      },
      {
        "station_id": 61,
        "name": "61 - RAMBLA CATALUNYA, 42",
        "physical_configuration": "ELECTRICBIKESTATION",
        "lat": 41.390143,
        "lon": 2.164946,
        "altitude": 41,
        "address": "61 - RAMBLA CATALUNYA, 42",
        "post_code": "08908",
        "capacity": 26
      },
      {
        "station_id": 62,
        "name": "62 - PL. CATALUNYA, 5",
        "physical_configuration": "ELECTRICBIKESTATION",
        "lat": 41.387142,
        "lon": 2.168858,
        "altitude": 32,
        "address": "62 - PL. CATALUNYA, 5",
        "post_code": "08908",
        "capacity": 25
      },
      {
        "station_id": 63,
        "name": "63 - PL. CATALUNYA, 7",
        "physical_configuration": "ELECTRICBIKESTATION",
        "lat": 41.38645,
        "lon": 2.169463,
        "altitude": 32,
        "address": "63 - PL. CATALUNYA, 7",
        "post_code": "08908",
        "capacity": 27
      },
      {
        "station_id": 64,
        "name": "64 - PL. CATALUNYA, 10-11 (RAMBLA)",
        "physical_configuration": "ELECTRICBIKESTATION",
        "lat": 41.387469,
        "lon": 2.169048,
        "altitude": 32,
        "address": "64 - PL. CATALUNYA, 10-11 (RAMBLA)",
        "post_code": "08908",
        "capacity": 17
      },
      {
        "station_id": 65,
        "name": "65 - PL. CATALUNYA, 10-11 (PG. DE GRACIA)",
        "physical_configuration": "ELECTRICBIKESTATION",
        "lat": 41.387678,
        "lon": 2.169587,
        "altitude": 32,
        "address": "65 - PL. CATALUNYA, 10-11 (PG. DE GRACIA)",
        "post_code": "08908",
        "capacity": 21
      },
      {
        "station_id": 66,
        "name": "66 - GRAN VIA DE LES CORTS CATALANES, 609 ",
        "physical_configuration": "ELECTRICBIKESTATION",
        "lat": 41.389097,
        "lon": 2.167933,
        "altitude": 32,
        "address": "66 - GRAN VIA DE LES CORTS CATALANES, 609 ",
        "post_code": "08908",
        "capacity": 14
      },
      {
        "station_id": 67,
        "name": "67 - C/ ROCAFORT, 214 / ROSSELLÓ",
        "physical_configuration": "ELECTRICBIKESTATION",
        "lat": 41.385012,
        "lon": 2.145843,
        "altitude": 51,
        "address": "67 - C/ ROCAFORT, 214 / ROSSELLÓ",
        "post_code": "08908",
        "capacity": 22
      },
      {
        "station_id": 68,
        "name": "68 - RAMBLA CATALUNYA, 133 /  CÒRSEGA",
        "physical_configuration": "ELECTRICBIKESTATION",
        "lat": 41.395364,
        "lon": 2.157356,
        "altitude": 59,
        "address": "68 - RAMBLA CATALUNYA, 133 /  CÒRSEGA",
        "post_code": "08908",
        "capacity": 27
      },
      {
        "station_id": 69,
        "name": "69 - CARRER DE LA MARINA, 25-33",
        "physical_configuration": "ELECTRICBIKESTATION",
        "lat": 41.38797,
        "lon": 2.195801,
        "altitude": 8,
        "address": "69 - CARRER DE LA MARINA, 25-33",
        "post_code": "08908",
        "capacity": 20
      },
      {
        "station_id": 70,
        "name": "70 - C/ COMTE URGELL, 23",
        "physical_configuration": "ELECTRICBIKESTATION",
        "lat": 41.380347,
        "lon": 2.160695,
        "altitude": 35,
        "address": "70 - C/ COMTE URGELL, 23",
        "post_code": "08908",
        "capacity": 27
      },
      {
        "station_id": 71,
        "name": "71 - C/ FLORIDABLANCA, 145",
        "physical_configuration": "ELECTRICBIKESTATION",
        "lat": 41.381931,
        "lon": 2.162969,
        "altitude": 35,
        "address": "71 - C/ FLORIDABLANCA, 145",
        "post_code": "08908",
        "capacity": 21
      },
      {
        "station_id": 72,
        "name": "72 - C/ PROVENÇA, 215",
        "physical_configuration": "ELECTRICBIKESTATION",
        "lat": 41.392716,
        "lon": 2.158811,
        "altitude": 55,
        "address": "72 - C/ PROVENÇA, 215",
        "post_code": "08908",
        "capacity": 26
      },
      {
        "station_id": 73,
        "name": "73 - C/ ENRIC GRANADOS, 93",
        "physical_configuration": "ELECTRICBIKESTATION",
        "lat": 41.392278,
        "lon": 2.156183,
        "altitude": 59,
        "address": "73 - C/ ENRIC GRANADOS, 93",
        "post_code": "08908",
        "capacity": 27
      },
      {
        "station_id": 74,
        "name": "74 - AV. JOSEP TARRADELLAS, 133",
        "physical_configuration": "ELECTRICBIKESTATION",
        "lat": 41.390062,
        "lon": 2.143272,
        "altitude": 51,
        "address": "74 - AV. JOSEP TARRADELLAS, 133",
        "post_code": "08908",
        "capacity": 14
      },
      {
        "station_id": 75,
        "name": "75 - AV. JOSEP TARRADELLAS, 58",
        "physical_configuration": "ELECTRICBIKESTATION",
        "lat": 41.385081,
        "lon": 2.142868,
        "altitude": 51,
        "address": "75 - AV. JOSEP TARRADELLAS, 58",
        "post_code": "08908",
        "capacity": 20
      },
      {
        "station_id": 76,
        "name": "76 - CÒRSEGA, 216",
        "physical_configuration": "ELECTRICBIKESTATION",
        "lat": 41.391751,
        "lon": 2.153123,
        "altitude": 45,
        "address": "76 - CÒRSEGA, 216",
        "post_code": "08908",
        "capacity": 32
      },
      {
        "station_id": 78,
        "name": "78 - PL. UNIVERSITAT /  ARIBAU",
        "physical_configuration": "ELECTRICBIKESTATION",
        "lat": 41.3856691,
        "lon": 2.1634139,
        "altitude": 41,
        "address": "78 - PL. UNIVERSITAT /  ARIBAU",
        "post_code": "08908",
        "capacity": 26
      },
      {
        "station_id": 79,
        "name": "79 - PL.  UNIVERSITAT",
        "physical_configuration": "ELECTRICBIKESTATION",
        "lat": 41.3854435,
        "lon": 2.1634297,
        "altitude": 41,
        "address": "79 - PL. UNIVERSITAT",
        "post_code": "08908",
        "capacity": 24
      },
      {
        "station_id": 80,
        "name": "80 - C/ ENRIC  GRANADOS, 35",
        "physical_configuration": "ELECTRICBIKESTATION",
        "lat": 41.390008,
        "lon": 2.1599551,
        "altitude": 41,
        "address": "80 - C/ ENRIC  GRANADOS, 35",
        "post_code": "08908",
        "capacity": 21
      },
      {
        "station_id": 81,
        "name": "81 - C/ VILAMARÍ,  61",
        "physical_configuration": "ELECTRICBIKESTATION",
        "lat": 41.3790058,
        "lon": 2.1490856,
        "altitude": 44,
        "address": "81 - C/ VILAMARÍ,  61",
        "post_code": "08908",
        "capacity": 21
      },
      {
        "station_id": 82,
        "name": "82 - C/ ROCAFORT, 72-74",
        "physical_configuration": "ELECTRICBIKESTATION",
        "lat": 41.3787972,
        "lon": 2.1533895,
        "altitude": 40,
        "address": "82 - C/ ROCAFORT, 72-74",
        "post_code": "08908",
        "capacity": 33
      },
      {
        "station_id": 83,
        "name": "83 - C/ COMTE BORRELL, 177",
        "physical_configuration": "ELECTRICBIKESTATION",
        "lat": 41.3840885,
        "lon": 2.1537733,
        "altitude": 45,
        "address": "83 - C/ COMTE BORRELL, 177",
        "post_code": "08908",
        "capacity": 24
      },
      {
        "station_id": 84,
        "name": "84 - C/ DEL COMTE D'URGELL, 75 B",
        "physical_configuration": "ELECTRICBIKESTATION",
        "lat": 41.3831216,
        "lon": 2.1572314,
        "altitude": 35,
        "address": "84 - C/ DEL COMTE D'URGELL, 75 B",
        "post_code": "08908",
        "capacity": 27
      },
      {
        "station_id": 85,
        "name": "85 - AV. PARAL·LEL, 146 BIS",
        "physical_configuration": "ELECTRICBIKESTATION",
        "lat": 41.3750672,
        "lon": 2.159005,
        "altitude": 35,
        "address": "85 - AV. PARAL·LEL, 146 BIS",
        "post_code": "08908",
        "capacity": 24
      },
      {
        "station_id": 86,
        "name": "86 - C/ VILADOMAT,  2",
        "physical_configuration": "ELECTRICBIKESTATION",
        "lat": 41.3752683,
        "lon": 2.1630981,
        "altitude": 35,
        "address": "86 - C/ VILADOMAT,  2",
        "post_code": "08908",
        "capacity": 27
      },
      {
        "station_id": 87,
        "name": "87 - C/ MALLORCA, 41-43",
        "physical_configuration": "ELECTRICBIKESTATION",
        "lat": 41.3832053,
        "lon": 2.1486715,
        "altitude": 44,
        "address": "87 - C/ MALLORCA, 41-43",
        "post_code": "08908",
        "capacity": 21
      },
      {
        "station_id": 88,
        "name": "88 - C/ LONDRES, 101-103",
        "physical_configuration": "ELECTRICBIKESTATION",
        "lat": 41.3935986,
        "lon": 2.1506554,
        "altitude": 59,
        "address": "88 - C/ LONDRES, 101-103",
        "post_code": "08908",
        "capacity": 19
      },
      {
        "station_id": 89,
        "name": "89 - C/ ROSSELLÓ,  101",
        "physical_configuration": "ELECTRICBIKESTATION",
        "lat": 41.388154,
        "lon": 2.1503428,
        "altitude": 45,
        "address": "89 - C/ ROSSELLÓ,  101",
        "post_code": "08908",
        "capacity": 27
      },
      {
        "station_id": 90,
        "name": "90 - C/ ROSSELLÓ, 108-110",
        "physical_configuration": "ELECTRICBIKESTATION",
        "lat": 41.3884249,
        "lon": 2.1507832,
        "altitude": 45,
        "address": "90 - C/ ROSSELLÓ, 108-110",
        "post_code": "08908",
        "capacity": 18
      },
      {
        "station_id": 92,
        "name": "92 - C / PROVENÇA, 241",
        "physical_configuration": "ELECTRICBIKESTATION",
        "lat": 41.3937852,
        "lon": 2.1602704,
        "altitude": 50,
        "address": "92 - C / PROVENÇA, 241",
        "post_code": "08908",
        "capacity": 18
      },
      {
        "station_id": 93,
        "name": "93 - GRAN VIA DE LES CORTS CATALANES, 375",
        "physical_configuration": "ELECTRICBIKESTATION",
        "lat": 41.3755595,
        "lon": 2.1499725,
        "altitude": 40,
        "address": "93 - GRAN VIA DE LES CORTS CATALANES, 375-385",
        "post_code": "08908",
        "capacity": 24
      },
      {
        "station_id": 94,
        "name": "94 - GRAN VIA DE LES CORTS CATALANES, 375",
        "physical_configuration": "ELECTRICBIKESTATION",
        "lat": 41.3755704,
        "lon": 2.1500681,
        "altitude": 40,
        "address": "94 - GRAN  VIA DE LES CORTS CATALANES, 375-385",
        "post_code": "08908",
        "capacity": 24
      },
      {
        "station_id": 95,
        "name": "95 - C/ TARRAGONA, 103-115",
        "physical_configuration": "ELECTRICBIKESTATION",
        "lat": 41.3766488,
        "lon": 2.1476883,
        "altitude": 44,
        "address": "95 - C/ TARRAGONA, 103-115",
        "post_code": "08908",
        "capacity": 33
      },
      {
        "station_id": 96,
        "name": "96 - GRAN VIA DE LES CORTS CATALANES,  361",
        "physical_configuration": "ELECTRICBIKESTATION",
        "lat": 41.3742316,
        "lon": 2.1483861,
        "altitude": 61,
        "address": "96 - GRAN VIA DE LES CORTS CATALANES, 361",
        "post_code": "08908",
        "capacity": 21
      },
      {
        "station_id": 97,
        "name": "97 - C/ TARRAGONA, 141",
        "physical_configuration": "ELECTRICBIKESTATION",
        "lat": 41.3782369,
        "lon": 2.145503,
        "altitude": 44,
        "address": "97 - C/ TARRAGONA, 141",
        "post_code": "08908",
        "capacity": 21
      },
      {
        "station_id": 98,
        "name": "98 - C/ VIRIAT, 43",
        "physical_configuration": "ELECTRICBIKESTATION",
        "lat": 41.3803803,
        "lon": 2.1409726,
        "altitude": 44,
        "address": "98 - C/ VIRIAT, 43",
        "post_code": "08908",
        "capacity": 21
      },
      {
        "station_id": 99,
        "name": "99 - C/ VIRIAT,  53",
        "physical_configuration": "ELECTRICBIKESTATION",
        "lat": 41.380632,
        "lon": 2.141548,
        "altitude": 44,
        "address": "99 - C/ VIRIAT,  53",
        "post_code": "08908",
        "capacity": 21
      },
      {
        "station_id": 100,
        "name": "100 - C/ TARRAGONA,  159-173",
        "physical_configuration": "ELECTRICBIKESTATION",
        "lat": 41.3791661,
        "lon": 2.1440132,
        "altitude": 44,
        "address": "100 - C/ TARRAGONA,  159-173",
        "post_code": "08908",
        "capacity": 22
      },
      {
        "station_id": 101,
        "name": "101 - AV. DIAGONAL,  602",
        "physical_configuration": "ELECTRICBIKESTATION",
        "lat": 41.3927878,
        "lon": 2.1434059,
        "altitude": 69,
        "address": "101 - AV. DIAGONAL,  602",
        "post_code": "08908",
        "capacity": 24
      },
      {
        "station_id": 102,
        "name": "102 - AV. DIAGONAL,  612",
        "physical_configuration": "ELECTRICBIKESTATION",
        "lat": 41.3922519,
        "lon": 2.1420435,
        "altitude": 69,
        "address": "102 - AV. DIAGONAL,  612",
        "post_code": "08908",
        "capacity": 24
      },
      {
        "station_id": 103,
        "name": "103 - C/ ARAGÓ, 629",
        "physical_configuration": "ELECTRICBIKESTATION",
        "lat": 41.4098264,
        "lon": 2.1883486,
        "altitude": 17,
        "address": "103 - C/ ARAGÓ, 629",
        "post_code": "08908",
        "capacity": 21
      },
      {
        "station_id": 104,
        "name": "104 - C/ VALÈNCIA,  621",
        "physical_configuration": "ELECTRICBIKESTATION",
        "lat": 41.4108567,
        "lon": 2.1872941,
        "altitude": 17,
        "address": "104 - C/ VALÈNCIA, 621",
        "post_code": "08908",
        "capacity": 26
      },
      {
        "station_id": 105,
        "name": "105 - PL. URQUINAONA, 9-10",
        "physical_configuration": "ELECTRICBIKESTATION",
        "lat": 41.389197,
        "lon": 2.173555,
        "altitude": 32,
        "address": "105 - PL. URQUINAONA, 9-10",
        "post_code": "08908",
        "capacity": 21
      },
      {
        "station_id": 106,
        "name": "106 - PL  JOANIC - C / BRUNIQUER, 59",
        "physical_configuration": "ELECTRICBIKESTATION",
        "lat": 41.4056,
        "lon": 2.1623,
        "altitude": 59,
        "address": "106 - PL  JOANIC - C / BRUNIQUER, 59",
        "post_code": "08908",
        "capacity": 20
      },
      {
        "station_id": 107,
        "name": "107 - TRAV. DE GRÀCIA, 92 / VIA AUGUSTA",
        "physical_configuration": "ELECTRICBIKESTATION",
        "lat": 41.3985611,
        "lon": 2.1530513,
        "altitude": 59,
        "address": "107 - TRAV. DE GRÀCIA, 92 / VIA AUGUSTA",
        "post_code": "08908",
        "capacity": 20
      },
      {
        "station_id": 108,
        "name": "108 - C / INDÚSTRIA, 10",
        "physical_configuration": "ELECTRICBIKESTATION",
        "lat": 41.4024328,
        "lon": 2.1648503,
        "altitude": 59,
        "address": "108 - C / INDÚSTRIA, 10",
        "post_code": "08908",
        "capacity": 21
      },
      {
        "station_id": 109,
        "name": "109 - C/ LONDRES,  53",
        "physical_configuration": "ELECTRICBIKESTATION",
        "lat": 41.390936,
        "lon": 2.1474257,
        "altitude": 51,
        "address": "109 - C/ LONDRES,  53",
        "post_code": "08908",
        "capacity": 24
      },
      {
        "station_id": 110,
        "name": "110 - AV. ROMA,  136",
        "physical_configuration": "ELECTRICBIKESTATION",
        "lat": 41.3857053,
        "lon": 2.1547191,
        "altitude": 43,
        "address": "110 - AV. ROMA,  136",
        "post_code": "08908",
        "capacity": 21
      },
      {
        "station_id": 111,
        "name": "111 - C/ CALÀBRIA,  137",
        "physical_configuration": "ELECTRICBIKESTATION",
        "lat": 41.3813141,
        "lon": 2.1527471,
        "altitude": 41,
        "address": "111 - C/ CALÀBRIA, 137",
        "post_code": "08908",
        "capacity": 26
      },
      {
        "station_id": 112,
        "name": "112 - C/ FLORIDABLANCA,  49",
        "physical_configuration": "ELECTRICBIKESTATION",
        "lat": 41.3776061,
        "lon": 2.1572895,
        "altitude": 40,
        "address": "112 - C/ FLORIDABLANCA, 49",
        "post_code": "08908",
        "capacity": 20
      },
      {
        "station_id": 113,
        "name": "113 - RONDA DE SANT PAU , 51",
        "physical_configuration": "ELECTRICBIKESTATION",
        "lat": 41.3774096,
        "lon": 2.1648261,
        "altitude": 30,
        "address": "113 - RONDA DE SANT PAU, 51",
        "post_code": "08908",
        "capacity": 26
      },
      {
        "station_id": 114,
        "name": "114 - PL. JEAN GENET,  1",
        "physical_configuration": "ELECTRICBIKESTATION",
        "lat": 41.3768334,
        "lon": 2.1737389,
        "altitude": 24,
        "address": "114 - PL. JEAN GENET,  1",
        "post_code": "08908",
        "capacity": 20
      },
      {
        "station_id": 115,
        "name": "115 - AV. MARQUÉS DE L'ARGENTERA,  3",
        "physical_configuration": "ELECTRICBIKESTATION",
        "lat": 41.3837312,
        "lon": 2.1841477,
        "altitude": 1,
        "address": "115 - AV. MARQUÉS DE L'ARGENTERA,  3",
        "post_code": "08908",
        "capacity": 21
      },
      {
        "station_id": 116,
        "name": "116 - C/ DEL DR. AIGUADER, 72 / PG. SALVAT",
        "physical_configuration": "ELECTRICBIKESTATION",
        "lat": 41.3839396,
        "lon": 2.1916731,
        "altitude": 11,
        "address": "116 - C/ DEL DR. AIGUADER, 72 / PG. SALVAT PAPASSEIT",
        "post_code": "08908",
        "capacity": 27
      },
      {
        "station_id": 117,
        "name": "117 - C/ ROSA SENSAT, 12",
        "physical_configuration": "ELECTRICBIKESTATION",
        "lat": 41.3907885,
        "lon": 2.1969509,
        "altitude": 1,
        "address": "117 - C/ ROSA SENSAT, 12",
        "post_code": "08908",
        "capacity": 21
      },
      {
        "station_id": 118,
        "name": "118 - C/ PUJADES,  3",
        "physical_configuration": "ELECTRICBIKESTATION",
        "lat": 41.3919909,
        "lon": 2.1879553,
        "altitude": 18,
        "address": "118 - C/ PUJADES,  3",
        "post_code": "08908",
        "capacity": 27
      },
      {
        "station_id": 119,
        "name": "119 - C/ SARDENYA,  178",
        "physical_configuration": "ELECTRICBIKESTATION",
        "lat": 41.3966226,
        "lon": 2.1823944,
        "altitude": 21,
        "address": "119 - C/ SARDENYA,  178",
        "post_code": "08908",
        "capacity": 27
      },
      {
        "station_id": 120,
        "name": "120 -  C/ LEPANT,  278",
        "physical_configuration": "ELECTRICBIKESTATION",
        "lat": 41.4045867,
        "lon": 2.1765086,
        "altitude": 28,
        "address": "120 - C/ LEPANT,  278",
        "post_code": "08908",
        "capacity": 21
      },
      {
        "station_id": 121,
        "name": "121 - C/ CASTILLEJOS, 258",
        "physical_configuration": "ELECTRICBIKESTATION",
        "lat": 41.4061885,
        "lon": 2.1785208,
        "altitude": 28,
        "address": "121 - C/ CASTILLEJOS, 258",
        "post_code": "08908",
        "capacity": 21
      },
      {
        "station_id": 122,
        "name": "122 - C/ NÀPOLS, 344",
        "physical_configuration": "ELECTRICBIKESTATION",
        "lat": 41.4053379,
        "lon": 2.1660973,
        "altitude": 59,
        "address": "122 - C/ NÀPOLS, 344",
        "post_code": "08908",
        "capacity": 21
      },
      {
        "station_id": 123,
        "name": "123 - C/ GIRONA, 142",
        "physical_configuration": "ELECTRICBIKESTATION",
        "lat": 41.398114,
        "lon": 2.166828,
        "altitude": 45,
        "address": "123 - C/ GIRONA, 142",
        "post_code": "08908",
        "capacity": 21
      },
      {
        "station_id": 124,
        "name": "124 - C/ NOVA  BOCANA",
        "physical_configuration": "ELECTRICBIKESTATION",
        "lat": 41.3702482637018,
        "lon": 2.1878125984221697,
        "altitude": 5,
        "address": "124 - C/ NOVA  BOCANA",
        "post_code": "08908",
        "capacity": 27
      },
      {
        "station_id": 125,
        "name": "125 - PG. MARíTIM, 31 B (ANNEXA A LA  12)",
        "physical_configuration": "ELECTRICBIKESTATION",
        "lat": 41.3844693,
        "lon": 2.1955147,
        "altitude": 1,
        "address": "125 - PG. MARíTIM, 31 B (ANNEXA A LA  12)",
        "post_code": "08908",
        "capacity": 20
      },
      {
        "station_id": 126,
        "name": "126 - PG. DE COLOM /VIA LAIETANA",
        "physical_configuration": "ELECTRICBIKESTATION",
        "lat": 41.3806785,
        "lon": 2.1817748,
        "altitude": 5,
        "address": "126 - PG. DE COLOM /VIA LAIETANA",
        "post_code": "08908",
        "capacity": 23
      },
      {
        "station_id": 127,
        "name": "127 - C/ ARAGÓ, 659 / NAVAS DE TOLOSA",
        "physical_configuration": "ELECTRICBIKESTATION",
        "lat": 41.4118718,
        "lon": 2.1911494,
        "altitude": 17,
        "address": "127 - C/ ARAGÓ, 659 /NAVAS DE TOLOSA",
        "post_code": "08908",
        "capacity": 27
      },
      {
        "station_id": 128,
        "name": "128 - RAMBLA DE GUIPÚSCOA, 43/FLUVIÀ",
        "physical_configuration": "ELECTRICBIKESTATION",
        "lat": 41.4154133,
        "lon": 2.1964181,
        "altitude": 13,
        "address": "128 - RAMBLA DE GUIPÚSCOA, 43/FLUVIÀ",
        "post_code": "08908",
        "capacity": 28
      },
      {
        "station_id": 129,
        "name": "129 - C/ MANSO, 46",
        "physical_configuration": "ELECTRICBIKESTATION",
        "lat": 41.3770515,
        "lon": 2.1611378,
        "altitude": 35,
        "address": "129 - C/ MANSO, 46",
        "post_code": "08908",
        "capacity": 27
      },
      {
        "station_id": 130,
        "name": "130 - RAMBLA DE GUIPÚSCOA, 103 / CANTÀBRIA",
        "physical_configuration": "ELECTRICBIKESTATION",
        "lat": 41.4198281,
        "lon": 2.201574,
        "altitude": 9,
        "address": "130 - RAMBLA DE GUIPÚSCOA, 103 /CANTÀBRIA",
        "post_code": "08908",
        "capacity": 24
      },
      {
        "station_id": 131,
        "name": "131 - RAMBLA  DE GUIPÚSCOA, 158/ CA N'OLIVA",
        "physical_configuration": "ELECTRICBIKESTATION",
        "lat": 41.422785,
        "lon": 2.20594,
        "altitude": 9,
        "address": "131 - RAMBLA  DE GUIPÚSCOA, 158/ CA N'OLIVA",
        "post_code": "08908",
        "capacity": 27
      },
      {
        "station_id": 132,
        "name": "132 - PL. VALENTÍ ALMIRALL",
        "physical_configuration": "ELECTRICBIKESTATION",
        "lat": 41.4084554,
        "lon": 2.1919802,
        "altitude": 13,
        "address": "132 - PL.VALENTÍ ALMIRALL",
        "post_code": "08908",
        "capacity": 26
      },
      {
        "station_id": 133,
        "name": "133 - GRAN VIA DE LES CORTS CATALANES,  902",
        "physical_configuration": "ELECTRICBIKESTATION",
        "lat": 41.4076602,
        "lon": 2.1924881,
        "altitude": 16,
        "address": "133 - GRAN VIA DE LES CORTS CATALANES, 902",
        "post_code": "08908",
        "capacity": 16
      },
      {
        "station_id": 134,
        "name": "134 - C/ BAC DE RODA, 157",
        "physical_configuration": "ELECTRICBIKESTATION",
        "lat": 41.4115934,
        "lon": 2.1987619,
        "altitude": 10,
        "address": "134 - C/ BAC DE RODA, 157",
        "post_code": "08908",
        "capacity": 21
      },
      {
        "station_id": 135,
        "name": "135 - GRAN VIA DE LES CORTS CATALANES,  981",
        "physical_configuration": "ELECTRICBIKESTATION",
        "lat": 41.4121316,
        "lon": 2.1977579,
        "altitude": 13,
        "address": "135 - GRAN VIA DE LES CORTS CATALANES,  981",
        "post_code": "08908",
        "capacity": 21
      },
      {
        "station_id": 136,
        "name": "136 - GRAN VIA DE LES CORTS CATALANES,  1062",
        "physical_configuration": "ELECTRICBIKESTATION",
        "lat": 41.4141813,
        "lon": 2.2015894,
        "altitude": 9,
        "address": "136 - GRAN VIA DE LES CORTS CATALANES,  1062",
        "post_code": "08908",
        "capacity": 27
      },
      {
        "station_id": 137,
        "name": "137 - GRAN VIA DE LES CORTS CATALANES , 1041",
        "physical_configuration": "ELECTRICBIKESTATION",
        "lat": 41.4144656,
        "lon": 2.2014244,
        "altitude": 9,
        "address": "137 - GRAN VIA DE LES CORTS CATALANES, 1041",
        "post_code": "08908",
        "capacity": 24
      },
      {
        "station_id": 138,
        "name": "138 - GRAN VIA DE LES CORTS CATALANES,  1118",
        "physical_configuration": "ELECTRICBIKESTATION",
        "lat": 41.416832,
        "lon": 2.2053065,
        "altitude": 9,
        "address": "138 - GRAN VIA DE LES CORTS CATALANES, 1118",
        "post_code": "08908",
        "capacity": 21
      },
      {
        "station_id": 139,
        "name": "139 - GRAN VIA DE LES CORTS CATALANES,  1131",
        "physical_configuration": "ELECTRICBIKESTATION",
        "lat": 41.4179241,
        "lon": 2.2061937,
        "altitude": 9,
        "address": "139 - GRAN VIA DE LES CORTS CATALANES,  1131",
        "post_code": "08908",
        "capacity": 32
      },
      {
        "station_id": 140,
        "name": "140 - C/ VILADOMAT,  122",
        "physical_configuration": "ELECTRICBIKESTATION",
        "lat": 41.3806648,
        "lon": 2.15625,
        "altitude": 41,
        "address": "140 - C/ VILADOMAT, 122",
        "post_code": "08908",
        "capacity": 26
      },
      {
        "station_id": 141,
        "name": "141 - GRAN VIA DE LES CORTS CATALANES ,  940",
        "physical_configuration": "ELECTRICBIKESTATION",
        "lat": 41.4090158,
        "lon": 2.1946377,
        "altitude": 13,
        "address": "141 - GRAN VIA DE LES CORTS CATALANES ,  940",
        "post_code": "08908",
        "capacity": 32
      },
      {
        "station_id": 142,
        "name": "142 - C/ SANCHO DE ÁVILA,  104 - C/ BADAJOZ",
        "physical_configuration": "ELECTRICBIKESTATION",
        "lat": 41.4005692,
        "lon": 2.1923425,
        "altitude": 16,
        "address": "142 - C/ SANCHO DE ÁVILA,  104 - C/ BADAJOZ",
        "post_code": "08908",
        "capacity": 32
      },
      {
        "station_id": 143,
        "name": "143 -C/ SANCHO DE ÁVILA, 170 / LLACUNA",
        "physical_configuration": "ELECTRICBIKESTATION",
        "lat": 41.4030725,
        "lon": 2.1959541,
        "altitude": 16,
        "address": "143 -C/ SANCHO DE ÁVILA, 170 / LLACUNA",
        "post_code": "08908",
        "capacity": 27
      },
      {
        "station_id": 144,
        "name": "144 - C/ CASTELLA,  28 / DIAGONAL",
        "physical_configuration": "ELECTRICBIKESTATION",
        "lat": 41.4057871,
        "lon": 2.1975542,
        "altitude": 16,
        "address": "144 - C/ CASTELLA,  28 / DIAGONAL",
        "post_code": "08908",
        "capacity": 27
      },
      {
        "station_id": 145,
        "name": "145 - C/ PERE IV,  301 / FLUVIÀ",
        "physical_configuration": "ELECTRICBIKESTATION",
        "lat": 41.4099066,
        "lon": 2.2028356,
        "altitude": 9,
        "address": "145 - C/ PERE IV,  301 / FLUVIÀ",
        "post_code": "08908",
        "capacity": 26
      },
      {
        "station_id": 147,
        "name": "147 - RAMBLA PRIM, 79",
        "physical_configuration": "ELECTRICBIKESTATION",
        "lat": 41.416018,
        "lon": 2.212658,
        "altitude": 5,
        "address": "147 - RAMBLA PRIM, 79",
        "post_code": "08908",
        "capacity": 27
      },
      {
        "station_id": 148,
        "name": "148 - RONDA SANT PAU, 79",
        "physical_configuration": "ELECTRICBIKESTATION",
        "lat": 41.378486,
        "lon": 2.163404,
        "altitude": 12,
        "address": "148 - RONDA SANT PAU, 79",
        "post_code": "08908",
        "capacity": 27
      },
      {
        "station_id": 149,
        "name": "149 - C/ PUJADES, 57B",
        "physical_configuration": "ELECTRICBIKESTATION",
        "lat": 41.395905,
        "lon": 2.192958,
        "altitude": 11,
        "address": "149 - C/ PUJADES, 57B",
        "post_code": "08908",
        "capacity": 27
      },
      {
        "station_id": 150,
        "name": "150 - C/ ESPRONCEDA, 124",
        "physical_configuration": "ELECTRICBIKESTATION",
        "lat": 41.406549,
        "lon": 2.203112,
        "altitude": 10,
        "address": "150 - C/ ESPRONCEDA, 124",
        "post_code": "08908",
        "capacity": 27
      },
      {
        "station_id": 151,
        "name": "151 - C/ PALLARS, 182",
        "physical_configuration": "ELECTRICBIKESTATION",
        "lat": 41.40065,
        "lon": 2.19719,
        "altitude": 6,
        "address": "151 - C/ PALLARS, 182",
        "post_code": "08908",
        "capacity": 27
      },
      {
        "station_id": 152,
        "name": "152 - C/ PUJADES, 121",
        "physical_configuration": "ELECTRICBIKESTATION",
        "lat": 41.39925,
        "lon": 2.197421,
        "altitude": 11,
        "address": "152 - C/ PUJADES, 121",
        "post_code": "08908",
        "capacity": 27
      },
      {
        "station_id": 153,
        "name": "153 - C/ PUJADES, 173/RAMBLA DEL POBLE NOU",
        "physical_configuration": "ELECTRICBIKESTATION",
        "lat": 41.401778,
        "lon": 2.200769,
        "altitude": 10,
        "address": "153 - C/ PUJADES, 173/RAMBLA DEL POBLE NOU",
        "post_code": "08908",
        "capacity": 22
      },
      {
        "station_id": 154,
        "name": "154 - C/ PUJADES, 191",
        "physical_configuration": "ELECTRICBIKESTATION",
        "lat": 41.402454,
        "lon": 2.201656,
        "altitude": 10,
        "address": "154 - C/ PUJADES, 191",
        "post_code": "08908",
        "capacity": 32
      },
      {
        "station_id": 155,
        "name": "155 - C/ PUJADES, 311/ FLUVIÀ",
        "physical_configuration": "ELECTRICBIKESTATION",
        "lat": 41.406977,
        "lon": 2.207602,
        "altitude": 10,
        "address": "155 - C/ PUJADES, 311/ FLUVIÀ",
        "post_code": "08908",
        "capacity": 32
      },
      {
        "station_id": 156,
        "name": "156 - C/ SELVA DE MAR, 46",
        "physical_configuration": "ELECTRICBIKESTATION",
        "lat": 41.409017,
        "lon": 2.20881,
        "altitude": 5,
        "address": "156 - C/ SELVA DE MAR, 46",
        "post_code": "08908",
        "capacity": 27
      },
      {
        "station_id": 157,
        "name": "157 - C/ LLULL, 465",
        "physical_configuration": "ELECTRICBIKESTATION",
        "lat": 41.412942,
        "lon": 2.217994,
        "altitude": 0.1,
        "address": "157 - C/ LLULL, 465",
        "post_code": "08908",
        "capacity": 24
      },
      {
        "station_id": 158,
        "name": "158 - RAMBLA DE PRIM, 19",
        "physical_configuration": "ELECTRICBIKESTATION",
        "lat": 41.411741,
        "lon": 2.218546,
        "altitude": 1,
        "address": "158 - RAMBLA DE PRIM, 19",
        "post_code": "08908",
        "capacity": 27
      },
      {
        "station_id": 159,
        "name": "159 - AV. DIAGONAL, 26",
        "physical_configuration": "ELECTRICBIKESTATION",
        "lat": 41.410882,
        "lon": 2.216703,
        "altitude": 5,
        "address": "159 - AV. DIAGONAL, 26",
        "post_code": "08908",
        "capacity": 32
      },
      {
        "station_id": 160,
        "name": "160 - AV. D'EDUARD MARISTANY, 1 /FORUM",
        "physical_configuration": "ELECTRICBIKESTATION",
        "lat": 41.411026,
        "lon": 2.219377,
        "altitude": 1,
        "address": "160 - AV. D'EDUARD MARISTANY, 1 /FORUM",
        "post_code": "08908",
        "capacity": 33
      },
      {
        "station_id": 161,
        "name": "161 - C/ RAMON TURRÓ, 91",
        "physical_configuration": "ELECTRICBIKESTATION",
        "lat": 41.395009,
        "lon": 2.196308,
        "altitude": 11,
        "address": "161 - C/ RAMON TURRÓ, 91",
        "post_code": "08908",
        "capacity": 26
      },
      {
        "station_id": 162,
        "name": "162 - C/ RAMON TURRÓ, 292",
        "physical_configuration": "ELECTRICBIKESTATION",
        "lat": 41.403908,
        "lon": 2.208436,
        "altitude": 0.1,
        "address": "162 - C/ RAMON TURRÓ, 292",
        "post_code": "08908",
        "capacity": 27
      },
      {
        "station_id": 163,
        "name": "163 - AV. ICÀRIA, 202",
        "physical_configuration": "ELECTRICBIKESTATION",
        "lat": 41.3942,
        "lon": 2.20077,
        "altitude": 11,
        "address": "163 - AV. ICÀRIA, 202",
        "post_code": "08908",
        "capacity": 27
      },
      {
        "station_id": 164,
        "name": "164 - C/ INDEPENDÈNCIA, 379",
        "physical_configuration": "ELECTRICBIKESTATION",
        "lat": 41.411901,
        "lon": 2.177895,
        "altitude": 33,
        "address": "164 - C/ INDEPENDÈNCIA, 379",
        "post_code": "08908",
        "capacity": 26
      },
      {
        "station_id": 165,
        "name": "165 - C/ DEL DOCTOR TRUETA, 222",
        "physical_configuration": "ELECTRICBIKESTATION",
        "lat": 41.399196,
        "lon": 2.204253,
        "altitude": 0.1,
        "address": "165 - C/ DEL DOCTOR TRUETA, 222",
        "post_code": "08908",
        "capacity": 27
      },
      {
        "station_id": 166,
        "name": "166 - C/ BILBAO, 2",
        "physical_configuration": "ELECTRICBIKESTATION",
        "lat": 41.400533,
        "lon": 2.206539,
        "altitude": 0,
        "address": "166 - C/ BILBAO, 2",
        "post_code": "08005",
        "capacity": 27
      },
      {
        "station_id": 167,
        "name": "167 - C/ BAC DE RODA, 11",
        "physical_configuration": "ELECTRICBIKESTATION",
        "lat": 41.402561,
        "lon": 2.210538,
        "altitude": 0.1,
        "address": "167 - C/ BAC DE RODA, 11",
        "post_code": "08908",
        "capacity": 21
      },
      {
        "station_id": 168,
        "name": "168 - SELVA DE MAR / PG. DEL TAULAT ",
        "physical_configuration": "ELECTRICBIKESTATION",
        "lat": 41.405358,
        "lon": 2.213677,
        "altitude": 0.1,
        "address": "168 - SELVA DE MAR / PG. DEL TAULAT ",
        "post_code": "08908",
        "capacity": 25
      },
      {
        "station_id": 170,
        "name": "170 - AV.LITORAL, 40 (ANNEXA A LA 169)",
        "physical_configuration": "ELECTRICBIKESTATION",
        "lat": 41.389732,
        "lon": 2.199934,
        "altitude": 1,
        "address": "170 - AV.LITORAL, 40 (ANNEXA A LA 169)",
        "post_code": "08908",
        "capacity": 54
      },
      {
        "station_id": 171,
        "name": "171 - PG. MARÍTIM DE LA NOVA ICÀRIA, 83",
        "physical_configuration": "ELECTRICBIKESTATION",
        "lat": 41.391986,
        "lon": 2.203699,
        "altitude": 0.1,
        "address": "171 - PG. MARÍTIM DE LA NOVA ICÀRIA, 83",
        "post_code": "08908",
        "capacity": 54
      },
      {
        "station_id": 173,
        "name": "173 - AV.LITORAL, 84",
        "physical_configuration": "ELECTRICBIKESTATION",
        "lat": 41.398027,
        "lon": 2.208982,
        "altitude": 0.1,
        "address": "173 - AV.LITORAL, 84",
        "post_code": "08908",
        "capacity": 27
      },
      {
        "station_id": 174,
        "name": "174 - PG. DE GARCIA FÀRIA, 21/ESPRONCEDA",
        "physical_configuration": "ELECTRICBIKESTATION",
        "lat": 41.40061,
        "lon": 2.210461,
        "altitude": 0.1,
        "address": "174 - PG. DE GARCIA FÀRIA, 21/ESPRONCEDA",
        "post_code": "08908",
        "capacity": 27
      },
      {
        "station_id": 175,
        "name": "175 - C/ LLULL, 309",
        "physical_configuration": "ELECTRICBIKESTATION",
        "lat": 41.40666,
        "lon": 2.20956,
        "altitude": 10,
        "address": "175 - C/ LLULL, 309",
        "post_code": "08908",
        "capacity": 27
      },
      {
        "station_id": 176,
        "name": "176 - PG. DE GARCIA FÀRIA, 37/JOSEP FERRATER",
        "physical_configuration": "ELECTRICBIKESTATION",
        "lat": 41.402541,
        "lon": 2.212641,
        "altitude": 0.1,
        "address": "176 - PG. DE GARCIA FÀRIA, 37/JOSEP FERRATER",
        "post_code": "08908",
        "capacity": 27
      },
      {
        "station_id": 177,
        "name": "177 - C/ ROSSELLÓ, 557",
        "physical_configuration": "ELECTRICBIKESTATION",
        "lat": 41.411089,
        "lon": 2.181119,
        "altitude": 0.1,
        "address": "177 - C/ ROSSELLÓ, 557",
        "post_code": "08908",
        "capacity": 27
      },
      {
        "station_id": 178,
        "name": "178 - PG. DE GARCIA FÀRIA, 85",
        "physical_configuration": "ELECTRICBIKESTATION",
        "lat": 41.405389,
        "lon": 2.216212,
        "altitude": 0.1,
        "address": "178 - PG. DE GARCIA FÀRIA, 85",
        "post_code": "08908",
        "capacity": 27
      },
      {
        "station_id": 179,
        "name": "179 - PG. ZONA FRANCA, 244",
        "physical_configuration": "ELECTRICBIKESTATION",
        "lat": 41.363511,
        "lon": 2.13677,
        "altitude": 48,
        "address": "179 - PG. ZONA FRANCA, 244",
        "post_code": "08908",
        "capacity": 15
      },
      {
        "station_id": 180,
        "name": "180 - GRAN VIA DE LES CORTS CATALANES/MOSSÈN ",
        "physical_configuration": "ELECTRICBIKESTATION",
        "lat": 41.36778,
        "lon": 2.13926,
        "altitude": 50,
        "address": "180 - GRAN VIA DE LES CORTS CATALANES/MOSSÈN AMADEU OLLER",
        "post_code": "08908",
        "capacity": 50
      },
      {
        "station_id": 182,
        "name": "182 - GRAN VIA DE LES CORTS CATALANES, 273",
        "physical_configuration": "ELECTRICBIKESTATION",
        "lat": 41.371455,
        "lon": 2.143882,
        "altitude": 61,
        "address": "182 - GRAN VIA DE LES CORTS CATALANES, 273",
        "post_code": "08908",
        "capacity": 26
      },
      {
        "station_id": 184,
        "name": "184 - C/ QUETZAL, 22-24",
        "physical_configuration": "ELECTRICBIKESTATION",
        "lat": 41.367504,
        "lon": 2.134088,
        "altitude": 50,
        "address": "184 - C/ QUETZAL, 22-24",
        "post_code": "08908",
        "capacity": 27
      },
      {
        "station_id": 185,
        "name": "185 - C/GAVÀ, 81",
        "physical_configuration": "ELECTRICBIKESTATION",
        "lat": 41.37046,
        "lon": 2.138994,
        "altitude": 50,
        "address": "185 - C/GAVÀ, 81",
        "post_code": "08908",
        "capacity": 17
      },
      {
        "station_id": 186,
        "name": "186 - C/CONSELL DE CENT, 6",
        "physical_configuration": "ELECTRICBIKESTATION",
        "lat": 41.375571,
        "lon": 2.143812,
        "altitude": 0,
        "address": "186 - C/CONSELL DE CENT, 6",
        "post_code": "08908",
        "capacity": 25
      },
      {
        "station_id": 187,
        "name": "187 - C/ DE SANT PAU, 89 - 97",
        "physical_configuration": "ELECTRICBIKESTATION",
        "lat": 41.376858,
        "lon": 2.169811,
        "altitude": 24,
        "address": "187 - C/ DE SANT PAU, 89 - 97",
        "post_code": "08908",
        "capacity": 19
      },
      {
        "station_id": 188,
        "name": "188 - PG. SANT ANTONI /PL. SANTS",
        "physical_configuration": "ELECTRICBIKESTATION",
        "lat": 41.375802,
        "lon": 2.135973,
        "altitude": 45,
        "address": "188 - PG. SANT ANTONI /PL. SANTS",
        "post_code": "08908",
        "capacity": 27
      },
      {
        "station_id": 189,
        "name": "189 - C/ BRUC, 130",
        "physical_configuration": "ELECTRICBIKESTATION",
        "lat": 41.396918,
        "lon": 2.166163,
        "altitude": 50,
        "address": "189 - C/ BRUC, 130",
        "post_code": "08908",
        "capacity": 26
      },
      {
        "station_id": 190,
        "name": "190 - AV. LITORAL, 72",
        "physical_configuration": "ELECTRICBIKESTATION",
        "lat": 41.39606,
        "lon": 2.207803,
        "altitude": 0.1,
        "address": "190 - AV. LITORAL, 72",
        "post_code": "08908",
        "capacity": 29
      },
      {
        "station_id": 191,
        "name": "191 - C/ ROCAFORT, 167",
        "physical_configuration": "ELECTRICBIKESTATION",
        "lat": 41.382564,
        "lon": 2.149094,
        "altitude": 44,
        "address": "191 - C/ ROCAFORT, 167",
        "post_code": "08908",
        "capacity": 24
      },
      {
        "station_id": 192,
        "name": "192 - C/ JOAN GÜELL, 50",
        "physical_configuration": "ELECTRICBIKESTATION",
        "lat": 41.378629,
        "lon": 2.133467,
        "altitude": 40,
        "address": "192 - C/ JOAN GÜELL, 50",
        "post_code": "08908",
        "capacity": 20
      },
      {
        "station_id": 193,
        "name": "193 - C/ FÍGOLS, 1",
        "physical_configuration": "ELECTRICBIKESTATION",
        "lat": 41.381311,
        "lon": 2.128912,
        "altitude": 46,
        "address": "193 - C/ FÍGOLS, 1",
        "post_code": "08908",
        "capacity": 26
      },
      {
        "station_id": 194,
        "name": "194 - C/ JOAN GÜELL, 98",
        "physical_configuration": "ELECTRICBIKESTATION",
        "lat": 41.381013,
        "lon": 2.132319,
        "altitude": 40,
        "address": "194 - C/ JOAN GÜELL, 98",
        "post_code": "08908",
        "capacity": 24
      },
      {
        "station_id": 195,
        "name": "195 - C/ VALLESPIR, 130",
        "physical_configuration": "ELECTRICBIKESTATION",
        "lat": 41.381888,
        "lon": 2.135433,
        "altitude": 45,
        "address": "195 - C/ VALLESPIR, 130",
        "post_code": "08908",
        "capacity": 27
      },
      {
        "station_id": 196,
        "name": "196 - C/ BERLÍN, 38",
        "physical_configuration": "ELECTRICBIKESTATION",
        "lat": 41.383241,
        "lon": 2.139363,
        "altitude": 30,
        "address": "196 - C/ BERLÍN, 38",
        "post_code": "08908",
        "capacity": 27
      },
      {
        "station_id": 197,
        "name": "197 - C/ GELABERT, 1",
        "physical_configuration": "ELECTRICBIKESTATION",
        "lat": 41.38712,
        "lon": 2.141039,
        "altitude": 57,
        "address": "197 - C/ GELABERT, 1",
        "post_code": "08908",
        "capacity": 27
      },
      {
        "station_id": 198,
        "name": "198 - C/ VALLESPIR, 194",
        "physical_configuration": "ELECTRICBIKESTATION",
        "lat": 41.38451,
        "lon": 2.133617,
        "altitude": 58,
        "address": "198 - C/ VALLESPIR, 194",
        "post_code": "08908",
        "capacity": 27
      },
      {
        "station_id": 199,
        "name": "199 - C/ MEJÍA LEQUERICA, 2",
        "physical_configuration": "ELECTRICBIKESTATION",
        "lat": 41.38182,
        "lon": 2.126933,
        "altitude": 46,
        "address": "199 - C/ MEJÍA LEQUERICA, 2",
        "post_code": "08908",
        "capacity": 27
      },
      {
        "station_id": 200,
        "name": "200 - C/ CAN BRUIXA, 1",
        "physical_configuration": "ELECTRICBIKESTATION",
        "lat": 41.383756,
        "lon": 2.131273,
        "altitude": 60,
        "address": "200 - C/ CAN BRUIXA, 1",
        "post_code": "08908",
        "capacity": 23
      },
      {
        "station_id": 201,
        "name": "201 - C/ NUMÀNCIA, 136",
        "physical_configuration": "ELECTRICBIKESTATION",
        "lat": 41.387787,
        "lon": 2.134341,
        "altitude": 58,
        "address": "201 - C/ NUMÀNCIA, 136",
        "post_code": "08908",
        "capacity": 24
      },
      {
        "station_id": 202,
        "name": "202 - C/ DE LES CORTS, 20",
        "physical_configuration": "ELECTRICBIKESTATION",
        "lat": 41.385331,
        "lon": 2.128737,
        "altitude": 60,
        "address": "202 - C/ DE LES CORTS, 20",
        "post_code": "08908",
        "capacity": 27
      },
      {
        "station_id": 203,
        "name": "203 - AV. DIAGONAL, 668",
        "physical_configuration": "ELECTRICBIKESTATION",
        "lat": 41.388742,
        "lon": 2.128503,
        "altitude": 60,
        "address": "203 - AV. DIAGONAL, 668",
        "post_code": "08908",
        "capacity": 33
      },
      {
        "station_id": 204,
        "name": "204 - AV. DIAGONAL, 664",
        "physical_configuration": "ELECTRICBIKESTATION",
        "lat": 41.388011,
        "lon": 2.125593,
        "altitude": 60,
        "address": "204 - AV. DIAGONAL, 664",
        "post_code": "08908",
        "capacity": 32
      },
      {
        "station_id": 205,
        "name": "205 - C/ EUROPA, 25",
        "physical_configuration": "ELECTRICBIKESTATION",
        "lat": 41.387465,
        "lon": 2.130838,
        "altitude": 60,
        "address": "205 - C/ EUROPA, 25",
        "post_code": "08908",
        "capacity": 33
      },
      {
        "station_id": 206,
        "name": "206 - AV. DIAGONAL, 650",
        "physical_configuration": "ELECTRICBIKESTATION",
        "lat": 41.389845,
        "lon": 2.13284,
        "altitude": 60,
        "address": "206 - AV. DIAGONAL, 650",
        "post_code": "08908",
        "capacity": 33
      },
      {
        "station_id": 207,
        "name": "207 - AV. DIAGONAL, 634",
        "physical_configuration": "ELECTRICBIKESTATION",
        "lat": 41.390828,
        "lon": 2.136665,
        "altitude": 57,
        "address": "207 - AV. DIAGONAL, 634",
        "post_code": "08908",
        "capacity": 25
      },
      {
        "station_id": 208,
        "name": "208 - AV. DIAGONAL, 630",
        "physical_configuration": "ELECTRICBIKESTATION",
        "lat": 41.391451,
        "lon": 2.139116,
        "altitude": 57,
        "address": "208 - AV. DIAGONAL, 630",
        "post_code": "08908",
        "capacity": 33
      },
      {
        "station_id": 209,
        "name": "209 - C/ DIPUTACIÓ, 200",
        "physical_configuration": "ELECTRICBIKESTATION",
        "lat": 41.385755,
        "lon": 2.161004,
        "altitude": 41,
        "address": "209 - C/ DIPUTACIÓ, 200",
        "post_code": "08908",
        "capacity": 26
      },
      {
        "station_id": 210,
        "name": "210 - C/ VILARDELL, 18",
        "physical_configuration": "ELECTRICBIKESTATION",
        "lat": 41.37453,
        "lon": 2.142356,
        "altitude": 50,
        "address": "210 - C/ VILARDELL, 18",
        "post_code": "08908",
        "capacity": 27
      },
      {
        "station_id": 211,
        "name": "211 - C/ SANCHO DE ÁVILA, 60-64",
        "physical_configuration": "ELECTRICBIKESTATION",
        "lat": 41.398772,
        "lon": 2.190167,
        "altitude": 18,
        "address": "211 - C/ SANCHO DE ÁVILA, 60-64",
        "post_code": "08908",
        "capacity": 27
      },
      {
        "station_id": 212,
        "name": "212 - AV. SARRIÀ, 163",
        "physical_configuration": "ELECTRICBIKESTATION",
        "lat": 41.39239,
        "lon": 2.130945,
        "altitude": 82,
        "address": "212 - AV. SARRIÀ, 163",
        "post_code": "08908",
        "capacity": 24
      },
      {
        "station_id": 213,
        "name": "213 - C/ SANTA FE DE NOU MÈXIC, 2",
        "physical_configuration": "ELECTRICBIKESTATION",
        "lat": 41.393783,
        "lon": 2.135078,
        "altitude": 79,
        "address": "213 - C/ SANTA FE DE NOU MÈXIC, 2",
        "post_code": "08908",
        "capacity": 33
      },
      {
        "station_id": 214,
        "name": "214 - C/ JOSÉ DE  AGULLÓ, 9",
        "physical_configuration": "ELECTRICBIKESTATION",
        "lat": 41.395251,
        "lon": 2.133541,
        "altitude": 85,
        "address": "214 - C/ JOSÉ DE  AGULLÓ, 9",
        "post_code": "08908",
        "capacity": 25
      },
      {
        "station_id": 215,
        "name": "215 - C/ GANDUXER, 29",
        "physical_configuration": "ELECTRICBIKESTATION",
        "lat": 41.39412,
        "lon": 2.138146,
        "altitude": 79,
        "address": "215 - C/ GANDUXER, 29",
        "post_code": "08908",
        "capacity": 21
      },
      {
        "station_id": 216,
        "name": "216 - C/ MADRAZO, 131",
        "physical_configuration": "ELECTRICBIKESTATION",
        "lat": 41.396809,
        "lon": 2.144534,
        "altitude": 69,
        "address": "216 - C/ MADRAZO, 131",
        "post_code": "08908",
        "capacity": 26
      },
      {
        "station_id": 217,
        "name": "217 - C/ RECTOR UBACH, 24",
        "physical_configuration": "ELECTRICBIKESTATION",
        "lat": 41.398463,
        "lon": 2.143924,
        "altitude": 69,
        "address": "217 - C/ RECTOR UBACH, 24",
        "post_code": "08908",
        "capacity": 26
      },
      {
        "station_id": 218,
        "name": "218 - C/ CONSELL DE CENT, 566",
        "physical_configuration": "ELECTRICBIKESTATION",
        "lat": 41.404114,
        "lon": 2.183203,
        "altitude": 28,
        "address": "218 - C/ CONSELL DE CENT, 566",
        "post_code": "08908",
        "capacity": 27
      },
      {
        "station_id": 219,
        "name": "219 - C/ LAFORJA, 74-76",
        "physical_configuration": "ELECTRICBIKESTATION",
        "lat": 41.397698,
        "lon": 2.147358,
        "altitude": 69,
        "address": "219 - C/ LAFORJA, 74-76",
        "post_code": "08908",
        "capacity": 26
      },
      {
        "station_id": 220,
        "name": "220 - C/ TUSET, 19",
        "physical_configuration": "ELECTRICBIKESTATION",
        "lat": 41.396229,
        "lon": 2.151482,
        "altitude": 59,
        "address": "220 - C/ TUSET, 19",
        "post_code": "08908",
        "capacity": 26
      },
      {
        "station_id": 221,
        "name": "221 - GRAN DE GRÀCIA, 155 (METRO FONTANA)",
        "physical_configuration": "ELECTRICBIKESTATION",
        "lat": 41.402535,
        "lon": 2.152519,
        "altitude": 71,
        "address": "221 - GRAN DE GRÀCIA, 155 (METRO FONTANA)",
        "post_code": "08908",
        "capacity": 24
      },
      {
        "station_id": 222,
        "name": "222 - C/ DEL CANÓ, 1",
        "physical_configuration": "ELECTRICBIKESTATION",
        "lat": 41.40124,
        "lon": 2.157483,
        "altitude": 71,
        "address": "222 - C/ DEL CANÓ, 1",
        "post_code": "08908",
        "capacity": 26
      },
      {
        "station_id": 223,
        "name": "223 - C/ DE BONAVISTA, 14",
        "physical_configuration": "ELECTRICBIKESTATION",
        "lat": 41.398311,
        "lon": 2.159865,
        "altitude": 50,
        "address": "223 - C/ DE BONAVISTA, 14",
        "post_code": "08908",
        "capacity": 36
      },
      {
        "station_id": 224,
        "name": "224 - C / GIRONA, 176",
        "physical_configuration": "ELECTRICBIKESTATION",
        "lat": 41.399945,
        "lon": 2.164389,
        "altitude": 55,
        "address": "224 - C / GIRONA, 176",
        "post_code": "08908",
        "capacity": 20
      },
      {
        "station_id": 225,
        "name": "225 - C/ MALLORCA, 84",
        "physical_configuration": "ELECTRICBIKESTATION",
        "lat": 41.384956,
        "lon": 2.150814,
        "altitude": 44,
        "address": "225 - C/ MALLORCA, 84",
        "post_code": "08908",
        "capacity": 22
      },
      {
        "station_id": 226,
        "name": "226 - C/ MONTMANY, 1",
        "physical_configuration": "ELECTRICBIKESTATION",
        "lat": 41.403465,
        "lon": 2.161096,
        "altitude": 59,
        "address": "226 - C/ MONTMANY, 1",
        "post_code": "08908",
        "capacity": 27
      },
      {
        "station_id": 227,
        "name": "227 - C/ DEL TORRENT DE LES FLORS, 102",
        "physical_configuration": "ELECTRICBIKESTATION",
        "lat": 41.407837,
        "lon": 2.158678,
        "altitude": 59,
        "address": "227 - C/ DEL TORRENT DE LES FLORS, 102",
        "post_code": "08908",
        "capacity": 18
      },
      {
        "station_id": 228,
        "name": "228 - PL. DEL NORD, 5",
        "physical_configuration": "ELECTRICBIKESTATION",
        "lat": 41.40694,
        "lon": 2.155794,
        "altitude": 71,
        "address": "228 - PL. DEL NORD, 5",
        "post_code": "08908",
        "capacity": 21
      },
      {
        "station_id": 229,
        "name": "229 - C/ DE LA SANTACREU, 2 (PL.DE LA VIRREIN",
        "physical_configuration": "ELECTRICBIKESTATION",
        "lat": 41.405107,
        "lon": 2.156874,
        "altitude": 71,
        "address": "229 - C/ DE LA SANTACREU, 2 (PL.DE LA VIRREINA)",
        "post_code": "08908",
        "capacity": 28
      },
      {
        "station_id": 230,
        "name": "230 - C/ DE NIL FABRA, 16-20",
        "physical_configuration": "ELECTRICBIKESTATION",
        "lat": 41.405986,
        "lon": 2.151633,
        "altitude": 71,
        "address": "230 - C/ DE NIL FABRA, 16-20",
        "post_code": "08908",
        "capacity": 26
      },
      {
        "station_id": 231,
        "name": "231 - C/ PI I MARGALL, 38",
        "physical_configuration": "ELECTRICBIKESTATION",
        "lat": 41.407202,
        "lon": 2.163476,
        "altitude": 82,
        "address": "231 - C/ PI I MARGALL, 38",
        "post_code": "08908",
        "capacity": 24
      },
      {
        "station_id": 232,
        "name": "232 - C/ VILÀ I VILÀ, 45",
        "physical_configuration": "ELECTRICBIKESTATION",
        "lat": 41.373509,
        "lon": 2.171002,
        "altitude": 1,
        "address": "232 - C/ VILÀ I VILÀ, 45",
        "post_code": "08908",
        "capacity": 27
      },
      {
        "station_id": 233,
        "name": "233 - C/ NOU DE LA RAMBLA, 164",
        "physical_configuration": "ELECTRICBIKESTATION",
        "lat": 41.371965,
        "lon": 2.166871,
        "altitude": 1,
        "address": "233 - C/ NOU DE LA RAMBLA, 164",
        "post_code": "08908",
        "capacity": 27
      },
      {
        "station_id": 234,
        "name": "234 - PG. DE L´EXPOSICIÓ, 30 /BLASCO GARAY",
        "physical_configuration": "ELECTRICBIKESTATION",
        "lat": 41.371515,
        "lon": 2.162166,
        "altitude": 44,
        "address": "234 - PG. DE L´EXPOSICIÓ, 30 /BLASCO GARAY",
        "post_code": "08908",
        "capacity": 25
      },
      {
        "station_id": 235,
        "name": "235 - AV. PARAL.LEL, 98",
        "physical_configuration": "ELECTRICBIKESTATION",
        "lat": 41.375065,
        "lon": 2.165839,
        "altitude": 40,
        "address": "235 - AV. PARAL.LEL, 98",
        "post_code": "08908",
        "capacity": 27
      },
      {
        "station_id": 236,
        "name": "236 - AV. PARAL.LEL, 194",
        "physical_configuration": "ELECTRICBIKESTATION",
        "lat": 41.375127,
        "lon": 2.152769,
        "altitude": 47,
        "address": "236 - AV. PARAL.LEL, 194",
        "post_code": "08908",
        "capacity": 24
      },
      {
        "station_id": 237,
        "name": "237 - C/ RIUS I TAULET, 4",
        "physical_configuration": "ELECTRICBIKESTATION",
        "lat": 41.372891,
        "lon": 2.154471,
        "altitude": 67,
        "address": "237 - C/ RIUS I TAULET, 4",
        "post_code": "08908",
        "capacity": 27
      },
      {
        "station_id": 238,
        "name": "238 - C/ ESPRONCEDA, 298",
        "physical_configuration": "ELECTRICBIKESTATION",
        "lat": 41.415684,
        "lon": 2.190986,
        "altitude": 17,
        "address": "238 - C/ ESPRONCEDA, 298",
        "post_code": "08908",
        "capacity": 27
      },
      {
        "station_id": 239,
        "name": "239 - C/ INDÚSTRIA, 329",
        "physical_configuration": "ELECTRICBIKESTATION",
        "lat": 41.417323,
        "lon": 2.184534,
        "altitude": 18,
        "address": "239 - C/ INDÚSTRIA, 329",
        "post_code": "08908",
        "capacity": 27
      },
      {
        "station_id": 240,
        "name": "240 - C/ JOSEP ESTIVILL, 32",
        "physical_configuration": "ELECTRICBIKESTATION",
        "lat": 41.417763,
        "lon": 2.187558,
        "altitude": 18,
        "address": "240 - C/ JOSEP ESTIVILL, 32",
        "post_code": "08908",
        "capacity": 27
      },
      {
        "station_id": 241,
        "name": "241 - C/ TEODOR LLORENTE, 2",
        "physical_configuration": "ELECTRICBIKESTATION",
        "lat": 41.419337,
        "lon": 2.180482,
        "altitude": 40,
        "address": "241 - C/ TEODOR LLORENTE, 2",
        "post_code": "08908",
        "capacity": 33
      },
      {
        "station_id": 242,
        "name": "242 - C/ RAMON ALBÓ, 1",
        "physical_configuration": "ELECTRICBIKESTATION",
        "lat": 41.424451,
        "lon": 2.177284,
        "altitude": 37,
        "address": "242 - C/ RAMON ALBÓ, 1",
        "post_code": "08908",
        "capacity": 26
      },
      {
        "station_id": 243,
        "name": "243 - C/ ALEXANDRE GALÍ, 1-5",
        "physical_configuration": "ELECTRICBIKESTATION",
        "lat": 41.423939,
        "lon": 2.181298,
        "altitude": 37,
        "address": "243 - C/ ALEXANDRE GALÍ, 1-5",
        "post_code": "08908",
        "capacity": 27
      },
      {
        "station_id": 244,
        "name": "244 - C/ FELIP II, 214",
        "physical_configuration": "ELECTRICBIKESTATION",
        "lat": 41.426896,
        "lon": 2.178511,
        "altitude": 47,
        "address": "244 - C/ FELIP II, 214",
        "post_code": "08908",
        "capacity": 27
      },
      {
        "station_id": 246,
        "name": "246 - C/ GARCILASO, 77",
        "physical_configuration": "ELECTRICBIKESTATION",
        "lat": 41.422844,
        "lon": 2.186637,
        "altitude": 18,
        "address": "246 - C/ GARCILASO, 77",
        "post_code": "08908",
        "capacity": 17
      },
      {
        "station_id": 247,
        "name": "247 - C/ FELIPE II, 112",
        "physical_configuration": "ELECTRICBIKESTATION",
        "lat": 41.421992,
        "lon": 2.184806,
        "altitude": 19,
        "address": "247 - C/ FELIPE II, 112",
        "post_code": "08908",
        "capacity": 32
      },
      {
        "station_id": 248,
        "name": "248 - C/ PALÈNCIA, 31",
        "physical_configuration": "ELECTRICBIKESTATION",
        "lat": 41.418208,
        "lon": 2.190374,
        "altitude": 18,
        "address": "248 - C/ PALÈNCIA, 31",
        "post_code": "08908",
        "capacity": 27
      },
      {
        "station_id": 249,
        "name": "249 - C/ AÇORES,1-3",
        "physical_configuration": "ELECTRICBIKESTATION",
        "lat": 41.425216,
        "lon": 2.188997,
        "altitude": 18,
        "address": "249 - C/ AÇORES,1-3",
        "post_code": "08908",
        "capacity": 27
      },
      {
        "station_id": 250,
        "name": "250 - C/ PORTUGAL, 3",
        "physical_configuration": "ELECTRICBIKESTATION",
        "lat": 41.425905,
        "lon": 2.19115,
        "altitude": 24,
        "address": "250 - C/ PORTUGAL, 3",
        "post_code": "08908",
        "capacity": 27
      },
      {
        "station_id": 251,
        "name": "251 - C/ CARDENAL TEDESCHINI, 13",
        "physical_configuration": "ELECTRICBIKESTATION",
        "lat": 41.425405,
        "lon": 2.185226,
        "altitude": 27,
        "address": "251 - C/ CARDENAL TEDESCHINI, 13",
        "post_code": "08908",
        "capacity": 33
      },
      {
        "station_id": 252,
        "name": "252 - RAMBLA DE L'ONZE DE SETEMBRE, 31",
        "physical_configuration": "ELECTRICBIKESTATION",
        "lat": 41.429953,
        "lon": 2.193185,
        "altitude": 18,
        "address": "252 - RAMBLA DE L'ONZE DE SETEMBRE, 31",
        "post_code": "08908",
        "capacity": 32
      },
      {
        "station_id": 253,
        "name": "253 - C/ ONZE DE SETEMBRE, 37-39",
        "physical_configuration": "ELECTRICBIKESTATION",
        "lat": 41.429977,
        "lon": 2.191821,
        "altitude": 18,
        "address": "253 - C/ ONZE DE SETEMBRE, 37-39",
        "post_code": "08908",
        "capacity": 27
      },
      {
        "station_id": 254,
        "name": "254 - RAMBLA DE L'ONZE DE SETEMBRE, 69",
        "physical_configuration": "ELECTRICBIKESTATION",
        "lat": 41.429985,
        "lon": 2.190163,
        "altitude": 25,
        "address": "254 - RAMBLA DE L'ONZE DE SETEMBRE, 69",
        "post_code": "08908",
        "capacity": 26
      },
      {
        "station_id": 255,
        "name": "255 - C/ IRLANDA, 11-21",
        "physical_configuration": "ELECTRICBIKESTATION",
        "lat": 41.431183,
        "lon": 2.185852,
        "altitude": 27,
        "address": "255 - C/ IRLANDA, 11-21",
        "post_code": "08908",
        "capacity": 18
      },
      {
        "station_id": 258,
        "name": "258 - C/ FERNANDO PESSOA, 41",
        "physical_configuration": "ELECTRICBIKESTATION",
        "lat": 41.442167,
        "lon": 2.193032,
        "altitude": 15,
        "address": "258 - C/ FERNANDO PESSOA, 41",
        "post_code": "08908",
        "capacity": 26
      },
      {
        "station_id": 259,
        "name": "259 - C/ DE BARTRINA, 14",
        "physical_configuration": "ELECTRICBIKESTATION",
        "lat": 41.439109,
        "lon": 2.185818,
        "altitude": 25,
        "address": "259 - C/ DE BARTRINA, 14",
        "post_code": "08908",
        "capacity": 24
      },
      {
        "station_id": 260,
        "name": "260 - CARRER DEL CINCA, 7",
        "physical_configuration": "ELECTRICBIKESTATION",
        "lat": 41.4356947,
        "lon": 2.1920248,
        "altitude": 0,
        "address": "260 - CARRER DEL CINCA, 7",
        "post_code": "08030",
        "capacity": 27
      },
      {
        "station_id": 261,
        "name": "261 - C/ VILLARROEL, 39",
        "physical_configuration": "ELECTRICBIKESTATION",
        "lat": 41.382206,
        "lon": 2.160644,
        "altitude": 35,
        "address": "261 - C/ VILLARROEL, 39",
        "post_code": "08908",
        "capacity": 32
      },
      {
        "station_id": 262,
        "name": "262 - C/ ROCAFORT, 103",
        "physical_configuration": "ELECTRICBIKESTATION",
        "lat": 41.379821,
        "lon": 2.152496,
        "altitude": 40,
        "address": "262 - C/ ROCAFORT, 103",
        "post_code": "08908",
        "capacity": 32
      },
      {
        "station_id": 263,
        "name": "263 - PG. TORRAS I BAGES, 29",
        "physical_configuration": "ELECTRICBIKESTATION",
        "lat": 41.437814,
        "lon": 2.191039,
        "altitude": 27,
        "address": "263 - PG. TORRAS I BAGES, 29",
        "post_code": "08908",
        "capacity": 19
      },
      {
        "station_id": 264,
        "name": "264 - C/REPÚBLICA DOMINICANA,25(CENTRE COMERC",
        "physical_configuration": "ELECTRICBIKESTATION",
        "lat": 41.439949,
        "lon": 2.197033,
        "altitude": 19,
        "address": "264 - C/REPÚBLICA DOMINICANA,25(CENTRE COMERCIAL)",
        "post_code": "08908",
        "capacity": 32
      },
      {
        "station_id": 265,
        "name": "265 - C/ CASANOVAS, 67",
        "physical_configuration": "ELECTRICBIKESTATION",
        "lat": 41.385467,
        "lon": 2.158532,
        "altitude": 40,
        "address": "265 - C/ CASANOVAS, 67",
        "post_code": "08908",
        "capacity": 27
      },
      {
        "station_id": 266,
        "name": "266 - C/ CONCEPCIÓ ARENAL, 176",
        "physical_configuration": "ELECTRICBIKESTATION",
        "lat": 41.426841,
        "lon": 2.184238,
        "altitude": 37,
        "address": "266 - C/ CONCEPCIÓ ARENAL, 176",
        "post_code": "08908",
        "capacity": 27
      },
      {
        "station_id": 267,
        "name": "267 - PG. TORRAS I BAGES, 129",
        "physical_configuration": "ELECTRICBIKESTATION",
        "lat": 41.443395,
        "lon": 2.190623,
        "altitude": 24,
        "address": "267 - PG. TORRAS I BAGES, 129",
        "post_code": "08908",
        "capacity": 24
      },
      {
        "station_id": 268,
        "name": "268 - C/ FERNANDO PESSOA, 72",
        "physical_configuration": "ELECTRICBIKESTATION",
        "lat": 41.445705,
        "lon": 2.192892,
        "altitude": 23,
        "address": "268 - C/ FERNANDO PESSOA, 72",
        "post_code": "08908",
        "capacity": 26
      },
      {
        "station_id": 270,
        "name": "270 - CRTA. DE RIBES, 77 (TRINITAT VELLA)",
        "physical_configuration": "ELECTRICBIKESTATION",
        "lat": 41.448628,
        "lon": 2.18976,
        "altitude": 24,
        "address": "270 - CRTA. DE RIBES, 77 (TRINITAT VELLA)",
        "post_code": "08908",
        "capacity": 27
      },
      {
        "station_id": 271,
        "name": "271 - VIA BARCINO, 69",
        "physical_configuration": "ELECTRICBIKESTATION",
        "lat": 41.450634,
        "lon": 2.192335,
        "altitude": 18,
        "address": "271 - VIA BARCINO, 69",
        "post_code": "08908",
        "capacity": 21
      },
      {
        "station_id": 272,
        "name": "272 - C/ CONCEPCIÓ ARENAL, 281",
        "physical_configuration": "ELECTRICBIKESTATION",
        "lat": 41.432559,
        "lon": 2.184264,
        "altitude": 27,
        "address": "272 - C/ CONCEPCIÓ ARENAL, 281",
        "post_code": "08908",
        "capacity": 26
      },
      {
        "station_id": 273,
        "name": "273 - AV. MERIDIANA/PG. FABRA I PUIG (SANT AN",
        "physical_configuration": "ELECTRICBIKESTATION",
        "lat": 41.430404,
        "lon": 2.183382,
        "altitude": 27,
        "address": "273 - AV. MERIDIANA/PG. FABRA I PUIG (SANT ANDREU)",
        "post_code": "08908",
        "capacity": 35
      },
      {
        "station_id": 274,
        "name": "274 - RAMBLA FABRA I PUIG, 67",
        "physical_configuration": "ELECTRICBIKESTATION",
        "lat": 41.430092,
        "lon": 2.184898,
        "altitude": 27,
        "address": "274 - RAMBLA FABRA I PUIG, 67",
        "post_code": "08908",
        "capacity": 32
      },
      {
        "station_id": 275,
        "name": "275 - AV. RIO DE JANEIRO, 3",
        "physical_configuration": "ELECTRICBIKESTATION",
        "lat": 41.430693,
        "lon": 2.182225,
        "altitude": 27,
        "address": "275 - AV. RIO DE JANEIRO, 3",
        "post_code": "08908",
        "capacity": 32
      },
      {
        "station_id": 276,
        "name": "276 - PLAÇA ALFONS X EL SAVI / RONDA DEL GUIN",
        "physical_configuration": "ELECTRICBIKESTATION",
        "lat": 41.412163,
        "lon": 2.165275,
        "altitude": 87,
        "address": "276 - PLAÇA ALFONS X EL SAVI / RONDA DEL GUINARDO",
        "post_code": "08908",
        "capacity": 27
      },
      {
        "station_id": 277,
        "name": "277 - TRAVESSERA DE GRÀCIA, 328",
        "physical_configuration": "ELECTRICBIKESTATION",
        "lat": 41.408284,
        "lon": 2.16905,
        "altitude": 59,
        "address": "277 - TRAVESSERA DE GRÀCIA, 328",
        "post_code": "08908",
        "capacity": 25
      },
      {
        "station_id": 278,
        "name": "278 - TRAVESSERA DE GRÀCIA, 368",
        "physical_configuration": "ELECTRICBIKESTATION",
        "lat": 41.409815,
        "lon": 2.171621,
        "altitude": 55,
        "address": "278 - TRAVESSERA DE GRÀCIA, 368",
        "post_code": "08908",
        "capacity": 26
      },
      {
        "station_id": 279,
        "name": "279 - C/ MAS CASANOVAS, 137",
        "physical_configuration": "ELECTRICBIKESTATION",
        "lat": 41.415951,
        "lon": 2.174564,
        "altitude": 70,
        "address": "279 - C/ MAS CASANOVAS, 137",
        "post_code": "08908",
        "capacity": 27
      },
      {
        "station_id": 280,
        "name": "280 - C/ SANT ANTONI Mª CLARET, 290-296",
        "physical_configuration": "ELECTRICBIKESTATION",
        "lat": 41.413986,
        "lon": 2.177842,
        "altitude": 37,
        "address": "280 - C/ SANT ANTONI Mª CLARET, 290-296",
        "post_code": "08908",
        "capacity": 25
      },
      {
        "station_id": 281,
        "name": "281 - C/ D'ESCORNALBOU, 51",
        "physical_configuration": "ELECTRICBIKESTATION",
        "lat": 41.418088,
        "lon": 2.176313,
        "altitude": 45,
        "address": "281 - C/ D'ESCORNALBOU, 51",
        "post_code": "08908",
        "capacity": 24
      },
      {
        "station_id": 282,
        "name": "282 - PG. FONT D´EN- FARGAS, 1",
        "physical_configuration": "ELECTRICBIKESTATION",
        "lat": 41.427561,
        "lon": 2.166022,
        "altitude": 88,
        "address": "282 - PG. FONT D´EN- FARGAS, 1",
        "post_code": "08908",
        "capacity": 25
      },
      {
        "station_id": 284,
        "name": "284 - AV. DIAGONAL, 652",
        "physical_configuration": "ELECTRICBIKESTATION",
        "lat": 41.389503,
        "lon": 2.131454,
        "altitude": 60,
        "address": "284 - AV. DIAGONAL, 652",
        "post_code": "08908",
        "capacity": 27
      },
      {
        "station_id": 285,
        "name": "285 - C/ MALATS, 98-100",
        "physical_configuration": "ELECTRICBIKESTATION",
        "lat": 41.436708,
        "lon": 2.186059,
        "altitude": 25,
        "address": "285 - C/ MALATS, 98-100",
        "post_code": "08908",
        "capacity": 24
      },
      {
        "station_id": 286,
        "name": "286 - C/ BOLÍVIA, 76",
        "physical_configuration": "ELECTRICBIKESTATION",
        "lat": 41.403103,
        "lon": 2.191428,
        "altitude": 18,
        "address": "286 - C/ BOLÍVIA, 76",
        "post_code": "08908",
        "capacity": 16
      },
      {
        "station_id": 287,
        "name": "287 - GRAN VIA DE LES CORTS CATALANES, 632",
        "physical_configuration": "ELECTRICBIKESTATION",
        "lat": 41.389171,
        "lon": 2.168113,
        "altitude": 32,
        "address": "287 - GRAN VIA DE LES CORTS CATALANES, 632",
        "post_code": "08908",
        "capacity": 16
      },
      {
        "station_id": 288,
        "name": "288 - PL. VIRREI AMAT",
        "physical_configuration": "ELECTRICBIKESTATION",
        "lat": 41.429636,
        "lon": 2.174487,
        "altitude": 63,
        "address": "288 - PL. VIRREI AMAT",
        "post_code": "08908",
        "capacity": 32
      },
      {
        "station_id": 289,
        "name": "289 - C/ MÚRCIA, 64",
        "physical_configuration": "ELECTRICBIKESTATION",
        "lat": 41.416828,
        "lon": 2.191022,
        "altitude": 18,
        "address": "289 - C/ MÚRCIA, 64",
        "post_code": "08908",
        "capacity": 27
      },
      {
        "station_id": 290,
        "name": "290 - PL. DELS JARDINS D'ALFÀBIA, 1",
        "physical_configuration": "ELECTRICBIKESTATION",
        "lat": 41.437094,
        "lon": 2.174047,
        "altitude": 84,
        "address": "290 - PL. DELS JARDINS D'ALFÀBIA, 1",
        "cross_street": "Pg. Verdum",
        "post_code": "08908",
        "capacity": 17
      },
      {
        "station_id": 291,
        "name": "291 - C/ CUBELLES, 2",
        "physical_configuration": "ELECTRICBIKESTATION",
        "lat": 41.425897,
        "lon": 2.17505,
        "altitude": 55,
        "address": "291 - C/ CUBELLES, 2",
        "post_code": "08908",
        "capacity": 26
      },
      {
        "station_id": 292,
        "name": "292 - C/ AMILCAR, 1",
        "physical_configuration": "ELECTRICBIKESTATION",
        "lat": 41.430036,
        "lon": 2.171974,
        "altitude": 63,
        "address": "292 - C/ AMILCAR, 1",
        "post_code": "08908",
        "capacity": 15
      },
      {
        "station_id": 293,
        "name": "293 - C/ GRANOLLERS, 1",
        "physical_configuration": "ELECTRICBIKESTATION",
        "lat": 41.428388,
        "lon": 2.163101,
        "altitude": 95,
        "address": "293 - C/ GRANOLLERS, 1",
        "post_code": "08908",
        "capacity": 24
      },
      {
        "station_id": 294,
        "name": "294 - SEU DEL DISTRICTE (NOU BARRIS)",
        "physical_configuration": "ELECTRICBIKESTATION",
        "lat": 41.436373,
        "lon": 2.170678,
        "altitude": 61,
        "address": "294 - SEU DEL DISTRICTE (NOU BARRIS)",
        "post_code": "08908",
        "capacity": 24
      },
      {
        "station_id": 295,
        "name": "295 - C/ SANT ISCLE, 60",
        "physical_configuration": "ELECTRICBIKESTATION",
        "lat": 41.43345,
        "lon": 2.1715,
        "altitude": 61,
        "address": "295 - C/ SANT ISCLE, 60",
        "post_code": "08908",
        "capacity": 27
      },
      {
        "station_id": 296,
        "name": "296 - C/ DE ROSSELLÓ I PORCEL, 1/AV.MERIDIANA",
        "physical_configuration": "ELECTRICBIKESTATION",
        "lat": 41.436505,
        "lon": 2.183877,
        "altitude": 25,
        "address": "296 - C/ DE ROSSELLÓ I PORCEL, 1/AV.MERIDIANA",
        "post_code": "08908",
        "capacity": 33
      },
      {
        "station_id": 297,
        "name": "297 -  C/ TURÓ BLAU, 1-3",
        "physical_configuration": "ELECTRICBIKESTATION",
        "lat": 41.438864,
        "lon": 2.176822,
        "altitude": 45,
        "address": "297 -  C/ TURÓ BLAU, 1-3",
        "post_code": "08908",
        "capacity": 23
      },
      {
        "station_id": 298,
        "name": "298 - C/ ANDREU NIN, 22",
        "physical_configuration": "ELECTRICBIKESTATION",
        "lat": 41.43463,
        "lon": 2.181747,
        "altitude": 45,
        "address": "298 - C/ ANDREU NIN, 22",
        "post_code": "08908",
        "capacity": 33
      },
      {
        "station_id": 299,
        "name": "299 - C/ DE L'ESCULTOR ORDÓÑEZ, 55",
        "physical_configuration": "ELECTRICBIKESTATION",
        "lat": 41.433965,
        "lon": 2.175199,
        "altitude": 45,
        "address": "299 - C/ DE L'ESCULTOR ORDÓÑEZ, 55",
        "post_code": "08908",
        "capacity": 27
      },
      {
        "station_id": 300,
        "name": "300 - C/ DE MALADETA, 1",
        "physical_configuration": "ELECTRICBIKESTATION",
        "lat": 41.431593,
        "lon": 2.176909,
        "altitude": 47,
        "address": "300 - C/ DE MALADETA, 1",
        "post_code": "08908",
        "capacity": 18
      },
      {
        "station_id": 301,
        "name": "301 - C/ MARIE CURIE, 8-14",
        "physical_configuration": "ELECTRICBIKESTATION",
        "lat": 41.437053,
        "lon": 2.169644,
        "altitude": 61,
        "address": "301 - C/ MARIE CURIE, 8-14",
        "post_code": "08908",
        "capacity": 27
      },
      {
        "station_id": 302,
        "name": "302 - C/ CAVALLERS, 41",
        "physical_configuration": "ELECTRICBIKESTATION",
        "lat": 41.39065,
        "lon": 2.111615,
        "altitude": 73,
        "address": "302 - C/ CAVALLERS, 41",
        "post_code": "08908",
        "capacity": 32
      },
      {
        "station_id": 303,
        "name": "303 - C/ CAVALLERS, 67",
        "physical_configuration": "ELECTRICBIKESTATION",
        "lat": 41.393341,
        "lon": 2.115076,
        "altitude": 101,
        "address": "303 - C/ CAVALLERS, 67",
        "post_code": "08908",
        "capacity": 27
      },
      {
        "station_id": 304,
        "name": "304 - PG. MANUEL GIRONA, 7",
        "physical_configuration": "ELECTRICBIKESTATION",
        "lat": 41.390208,
        "lon": 2.121029,
        "altitude": 63,
        "address": "304 - PG. MANUEL GIRONA, 7",
        "post_code": "08908",
        "capacity": 27
      },
      {
        "station_id": 305,
        "name": "305 - AV. DIAGONAL, 680",
        "physical_configuration": "ELECTRICBIKESTATION",
        "lat": 41.387498,
        "lon": 2.123637,
        "altitude": 63,
        "address": "305 - AV. DIAGONAL, 680",
        "post_code": "08908",
        "capacity": 27
      },
      {
        "station_id": 306,
        "name": "306 - C/ DOCTOR SALVADOR CARDENAL, 1-5",
        "physical_configuration": "ELECTRICBIKESTATION",
        "lat": 41.385465,
        "lon": 2.122912,
        "altitude": 63,
        "address": "306 - C/ DOCTOR SALVADOR CARDENAL, 1-5",
        "post_code": "08908",
        "capacity": 31
      },
      {
        "station_id": 307,
        "name": "307 - C/ PINTOR RIBALTA / AV. XILE",
        "physical_configuration": "ELECTRICBIKESTATION",
        "lat": 41.379135,
        "lon": 2.113505,
        "altitude": 50,
        "address": "307 - C/ PINTOR RIBALTA / AV. XILE",
        "post_code": "08908",
        "capacity": 32
      },
      {
        "station_id": 308,
        "name": "308 - C/ CARDENAL REIG, 11",
        "physical_configuration": "ELECTRICBIKESTATION",
        "lat": 41.376788,
        "lon": 2.113864,
        "altitude": 50,
        "address": "308 - C/ CARDENAL REIG, 11",
        "post_code": "08908",
        "capacity": 27
      },
      {
        "station_id": 309,
        "name": "309 - C/ SANT RAMON NONAT,  26",
        "physical_configuration": "ELECTRICBIKESTATION",
        "lat": 41.37674,
        "lon": 2.116973,
        "altitude": 47,
        "address": "309 - C/ SANT RAMON NONAT,  26",
        "post_code": "08908",
        "capacity": 22
      },
      {
        "station_id": 310,
        "name": "310 - C/ JOSEP SAMITIER / JOAN XXIII",
        "physical_configuration": "ELECTRICBIKESTATION",
        "lat": 41.381223,
        "lon": 2.119077,
        "altitude": 47,
        "address": "310 - C/ JOSEP SAMITIER / JOAN XXIII",
        "post_code": "08908",
        "capacity": 27
      },
      {
        "station_id": 311,
        "name": "311 - C/ GALLEGO, 2",
        "physical_configuration": "ELECTRICBIKESTATION",
        "lat": 41.378638,
        "lon": 2.120393,
        "altitude": 52,
        "address": "311 - C/ GALLEGO, 2",
        "post_code": "08908",
        "capacity": 24
      },
      {
        "station_id": 312,
        "name": "312 - C/ ARIZALA, 77",
        "physical_configuration": "ELECTRICBIKESTATION",
        "lat": 41.379046,
        "lon": 2.123253,
        "altitude": 50,
        "address": "312 - C/ ARIZALA, 77",
        "post_code": "08908",
        "capacity": 36
      },
      {
        "station_id": 313,
        "name": "313 - C/ FELIU DE CASANOVA, 1",
        "physical_configuration": "ELECTRICBIKESTATION",
        "lat": 41.375366,
        "lon": 2.129847,
        "altitude": 42,
        "address": "313 - C/ FELIU DE CASANOVA, 1",
        "post_code": "08908",
        "capacity": 26
      },
      {
        "station_id": 314,
        "name": "314 - RAMBLA DEL BRASIL, 44",
        "physical_configuration": "ELECTRICBIKESTATION",
        "lat": 41.37836,
        "lon": 2.129737,
        "altitude": 46,
        "address": "314 - RAMBLA DEL BRASIL, 44",
        "post_code": "08908",
        "capacity": 24
      },
      {
        "station_id": 315,
        "name": "315 - C/ DEL GUINARDÓ, 32-38",
        "physical_configuration": "ELECTRICBIKESTATION",
        "lat": 41.415617,
        "lon": 2.181966,
        "altitude": 33,
        "address": "315 - C/ DEL GUINARDÓ, 32-38",
        "post_code": "08908",
        "capacity": 27
      },
      {
        "station_id": 316,
        "name": "316 - C/ CANTÀBRIA, 55",
        "physical_configuration": "ELECTRICBIKESTATION",
        "lat": 41.4222743,
        "lon": 2.1984029,
        "altitude": 13,
        "address": "316 - C/ CANTÀBRIA, 55",
        "post_code": "08908",
        "capacity": 26
      },
      {
        "station_id": 317,
        "name": "317 - RAMBLA DE PRIM, 256",
        "physical_configuration": "ELECTRICBIKESTATION",
        "lat": 41.425566,
        "lon": 2.200693,
        "altitude": 12,
        "address": "317 - RAMBLA DE PRIM, 256",
        "post_code": "08908",
        "capacity": 27
      },
      {
        "station_id": 318,
        "name": "318 - C/ CARTAGENA, 368",
        "physical_configuration": "ELECTRICBIKESTATION",
        "lat": 41.413406,
        "lon": 2.171331,
        "altitude": 59,
        "address": "318 - C/ CARTAGENA, 368",
        "post_code": "08908",
        "capacity": 27
      },
      {
        "station_id": 319,
        "name": "319 - C/ SAGUÉS, 1",
        "physical_configuration": "ELECTRICBIKESTATION",
        "lat": 41.393713,
        "lon": 2.145584,
        "altitude": 65,
        "address": "319 - C/ SAGUÉS, 1",
        "post_code": "08908",
        "capacity": 19
      },
      {
        "station_id": 320,
        "name": "320 - VÍA AUGUSTA, 109",
        "physical_configuration": "ELECTRICBIKESTATION",
        "lat": 41.401116,
        "lon": 2.147953,
        "altitude": 80,
        "address": "320 - VÍA AUGUSTA, 109",
        "post_code": "08908",
        "capacity": 27
      },
      {
        "station_id": 321,
        "name": "321 - C/ SANT HERMENEGILD, 30",
        "physical_configuration": "ELECTRICBIKESTATION",
        "lat": 41.403054,
        "lon": 2.144549,
        "altitude": 80,
        "address": "321 - C/ SANT HERMENEGILD, 30",
        "post_code": "08908",
        "capacity": 27
      },
      {
        "station_id": 322,
        "name": "322 - C/ SANTALÓ, 165",
        "physical_configuration": "ELECTRICBIKESTATION",
        "lat": 41.400977,
        "lon": 2.13907,
        "altitude": 106,
        "address": "322 - C/ SANTALÓ, 165",
        "post_code": "08908",
        "capacity": 24
      },
      {
        "station_id": 323,
        "name": "323 - C/ VALLMAJOR, 13",
        "physical_configuration": "ELECTRICBIKESTATION",
        "lat": 41.397996,
        "lon": 2.138717,
        "altitude": 79,
        "address": "323 - C/ VALLMAJOR, 13",
        "post_code": "08908",
        "capacity": 27
      },